
                [ {"name":"Tejon","coord":{"lon":-105.28611,"lat":34.58979},"country":"US","_id":5.493998E6},
{"name":"Taylor County","coord":{"lon":-99.833702,"lat":32.300129},"country":"US","_id":4.735729E6},
{"name":"Texas","coord":{"lon":-99.25061,"lat":31.250441},"country":"US","_id":4.736286E6},
{"name":"Truckton","coord":{"lon":-104.182182,"lat":38.738049},"country":"US","_id":5.442076E6},
{"name":"Thomas County","coord":{"lon":-101.05043,"lat":39.349998},"country":"US","_id":5.446632E6},
{"name":"Three Creek","coord":{"lon":-115.1595,"lat":42.071301},"country":"US","_id":5.610054E6},
{"name":"Tyndall Air Force Base","coord":{"lon":-85.607307,"lat":30.08535},"country":"US","_id":7.260215E6},
{"name":"Tangipahoa Parish","coord":{"lon":-90.400093,"lat":30.666849},"country":"US","_id":4.343122E6},
{"name":"Talent","coord":{"lon":-122.788651,"lat":42.245682},"country":"US","_id":5.75589E6},
{"name":"Tomahawk Bluff","coord":{"lon":-89.08342,"lat":41.380589},"country":"US","_id":4.913764E6},
{"name":"Thurston County","coord":{"lon":-122.817909,"lat":46.916489},"country":"US","_id":5.813521E6},
{"name":"Terre Haute","coord":{"lon":-87.41391,"lat":39.466702},"country":"US","_id":4.265737E6},
{"name":"Tahlequah","coord":{"lon":-94.969963,"lat":35.915371},"country":"US","_id":4.552707E6},
{"name":"Tullahoma","coord":{"lon":-86.209427,"lat":35.362019},"country":"US","_id":4.663494E6},
{"name":"Turlock","coord":{"lon":-120.846588,"lat":37.494659},"country":"US","_id":5.404024E6},
{"name":"Thane","coord":{"lon":-134.330276,"lat":58.264172},"country":"US","_id":5.557906E6},
{"name":"Teagueville (historical)","coord":{"lon":-119.082047,"lat":34.408329},"country":"US","_id":5.401254E6},
{"name":"Tioga County","coord":{"lon":-76.266319,"lat":42.16674},"country":"US","_id":5.141045E6},
{"name":"Thames","coord":{"lon":-82.692062,"lat":29.680519},"country":"US","_id":4.175046E6},
{"name":"Townsend","coord":{"lon":-94.311867,"lat":31.351021},"country":"US","_id":4.737254E6},
{"name":"Tolland County","coord":{"lon":-72.349533,"lat":41.850101},"country":"US","_id":4.844275E6},
{"name":"Tajiguas","coord":{"lon":-120.108482,"lat":34.46666},"country":"US","_id":5.400963E6},
{"name":"Tillman County","coord":{"lon":-98.917023,"lat":34.366749},"country":"US","_id":4.553073E6},
{"name":"Town and Country Mobile Home Park","coord":{"lon":-116.974747,"lat":32.83255},"country":"US","_id":5.403106E6},
{"name":"Troy","coord":{"lon":-85.969948,"lat":31.808769},"country":"US","_id":4.094163E6},
{"name":"Texarkana","coord":{"lon":-94.037689,"lat":33.441792},"country":"US","_id":4.133367E6},
{"name":"The Villages","coord":{"lon":-81.959938,"lat":28.93408},"country":"US","_id":4.175179E6},
{"name":"Thomas County","coord":{"lon":-83.866562,"lat":30.95019},"country":"US","_id":4.226286E6},
{"name":"Thomasville","coord":{"lon":-83.978783,"lat":30.83658},"country":"US","_id":4.226348E6},
{"name":"Tifton","coord":{"lon":-83.508499,"lat":31.45046},"country":"US","_id":4.226552E6},
{"name":"Titus County","coord":{"lon":-94.983551,"lat":33.233452},"country":"US","_id":4.736982E6},
{"name":"Texarkana","coord":{"lon":-94.047691,"lat":33.425121},"country":"US","_id":4.736096E6},
{"name":"Tulare","coord":{"lon":-119.347343,"lat":36.207729},"country":"US","_id":5.403783E6},
{"name":"Twentynine Palms","coord":{"lon":-116.054169,"lat":34.135559},"country":"US","_id":5.404198E6},
{"name":"Twin Falls","coord":{"lon":-114.460869,"lat":42.562969},"country":"US","_id":5.61081E6},
{"name":"Terrebonne Parish","coord":{"lon":-90.85009,"lat":29.37661},"country":"US","_id":4.343313E6},
{"name":"Townsend","coord":{"lon":-83.33931,"lat":30.12911},"country":"US","_id":4.175568E6},
{"name":"Travis County","coord":{"lon":-97.800293,"lat":30.33354},"country":"US","_id":4.737316E6},
{"name":"Tularosa","coord":{"lon":-106.0186,"lat":33.073971},"country":"US","_id":5.49538E6},
{"name":"Tecolote","coord":{"lon":-105.663322,"lat":34.017849},"country":"US","_id":5.493952E6},
{"name":"The Colony Mobile Home Park","coord":{"lon":-119.138718,"lat":34.16362},"country":"US","_id":5.401954E6},
{"name":"Torrance County","coord":{"lon":-105.81723,"lat":34.6334},"country":"US","_id":5.494881E6},
{"name":"Ten Broeck","coord":{"lon":-85.986923,"lat":34.41787},"country":"US","_id":4.093194E6},
{"name":"Tennessee","coord":{"lon":-86.250267,"lat":35.750351},"country":"US","_id":4.662168E6},
{"name":"Tulare County","coord":{"lon":-118.800926,"lat":36.266609},"country":"US","_id":5.403789E6},
{"name":"Taylor Springs","coord":{"lon":-104.49221,"lat":36.327251},"country":"US","_id":5.493903E6},
{"name":"Tar Corner","coord":{"lon":-76.286049,"lat":36.4771},"country":"US","_id":4.494476E6},
{"name":"Texas County","coord":{"lon":-101.517097,"lat":36.766689},"country":"US","_id":5.515937E6},
{"name":"Three Forks","coord":{"lon":-110.49514,"lat":37.991379},"country":"US","_id":5.548429E6},
{"name":"Toms Prairie","coord":{"lon":-88.258652,"lat":38.407829},"country":"US","_id":4.251347E6},
{"name":"Teller County","coord":{"lon":-105.167213,"lat":38.866661},"country":"US","_id":5.441188E6},
{"name":"Tooele County","coord":{"lon":-113.125259,"lat":40.375488},"country":"US","_id":5.783699E6},
{"name":"Tri-Lakes","coord":{"lon":-85.441917,"lat":41.24588},"country":"US","_id":4.927309E6},
{"name":"Triumph","coord":{"lon":-89.022034,"lat":41.499481},"country":"US","_id":4.914065E6},
{"name":"Tyrone","coord":{"lon":-77.058296,"lat":42.408131},"country":"US","_id":5.141775E6},
{"name":"Twin Falls County","coord":{"lon":-114.644493,"lat":42.35046},"country":"US","_id":5.610815E6},
{"name":"Tuscola County","coord":{"lon":-83.449951,"lat":43.46669},"country":"US","_id":5.012748E6},
{"name":"Teton County","coord":{"lon":-111.37606,"lat":43.91658},"country":"US","_id":5.609855E6},
{"name":"The String","coord":{"lon":-111.088547,"lat":43.584641},"country":"US","_id":5.609907E6},
{"name":"Teckla","coord":{"lon":-105.349983,"lat":43.5583},"country":"US","_id":5.840669E6},
{"name":"Torreys","coord":{"lon":-114.602287,"lat":44.253529},"country":"US","_id":5.61035E6},
{"name":"Teton County","coord":{"lon":-110.584099,"lat":43.916611},"country":"US","_id":5.840786E6},
{"name":"Three River Junction","coord":{"lon":-110.89299,"lat":44.289101},"country":"US","_id":5.840981E6},
{"name":"Tolman Corner","coord":{"lon":-72.30677,"lat":44.567551},"country":"US","_id":5.242022E6},
{"name":"Tainter Corner","coord":{"lon":-70.365341,"lat":44.587559},"country":"US","_id":4.980356E6},
{"name":"Taunton","coord":{"lon":-96.065872,"lat":44.593571},"country":"US","_id":5.049737E6},
{"name":"Thompson","coord":{"lon":-86.330421,"lat":45.904968},"country":"US","_id":5.012103E6},
{"name":"Todd County","coord":{"lon":-94.883629,"lat":46.066631},"country":"US","_id":5.050162E6},
{"name":"Traill County","coord":{"lon":-97.16703,"lat":47.444431},"country":"US","_id":5.062211E6},
{"name":"Tofte","coord":{"lon":-90.836258,"lat":47.573792},"country":"US","_id":5.050174E6},
{"name":"Texico","coord":{"lon":-103.051338,"lat":34.388691},"country":"US","_id":5.494197E6},
{"name":"Tresham","coord":{"lon":-97.049759,"lat":37.170029},"country":"US","_id":4.280618E6},
{"name":"Tanglewood","coord":{"lon":-75.170448,"lat":41.415089},"country":"US","_id":5.215178E6},
{"name":"Tiekel (historical)","coord":{"lon":-145.308609,"lat":61.326111},"country":"US","_id":5.876206E6},
{"name":"Todd County","coord":{"lon":-87.133331,"lat":36.766708},"country":"US","_id":4.310988E6},
{"name":"Tygh Valley","coord":{"lon":-121.173119,"lat":45.247341},"country":"US","_id":5.758029E6},
{"name":"Taylor County","coord":{"lon":-90.516808,"lat":45.21664},"country":"US","_id":5.275451E6},
{"name":"Three Forks","coord":{"lon":-110.957108,"lat":39.974682},"country":"US","_id":5.548441E6},
{"name":"Tutlut (historical)","coord":{"lon":-149.983337,"lat":64.75},"country":"US","_id":5.876887E6},
{"name":"Talus","coord":{"lon":-117.972862,"lat":36.086891},"country":"US","_id":5.401E6},
{"name":"Tazewell County","coord":{"lon":-89.550102,"lat":40.533371},"country":"US","_id":4.913271E6},
{"name":"Triadelphia","coord":{"lon":-80.62841,"lat":40.05257},"country":"US","_id":5.280753E6},
{"name":"Tehama County","coord":{"lon":-122.301109,"lat":40.133209},"country":"US","_id":5.572575E6},
{"name":"Tulse","coord":{"lon":-86.902771,"lat":33.24511},"country":"US","_id":4.094277E6},
{"name":"Troy","coord":{"lon":-116.7696,"lat":46.736839},"country":"US","_id":5.610655E6},
{"name":"Tres Pinos","coord":{"lon":-121.321037,"lat":36.789959},"country":"US","_id":5.403354E6},
{"name":"Trenton","coord":{"lon":-89.682037,"lat":38.605598},"country":"US","_id":4.251413E6},
{"name":"Tuscaloosa County","coord":{"lon":-87.500282,"lat":33.300121},"country":"US","_id":4.094463E6},
{"name":"Towns County","coord":{"lon":-83.71656,"lat":34.900089},"country":"US","_id":4.226924E6},
{"name":"Tranquil Hill","coord":{"lon":-81.558434,"lat":35.9818},"country":"US","_id":4.495539E6},
{"name":"Todd County","coord":{"lon":-100.749863,"lat":43.183338},"country":"US","_id":5.769778E6},
{"name":"Teays Farm","coord":{"lon":-81.902634,"lat":38.48592},"country":"US","_id":4.824451E6},
{"name":"Trinity County","coord":{"lon":-95.216881,"lat":31.10018},"country":"US","_id":4.737562E6},
{"name":"Tunica County","coord":{"lon":-90.363708,"lat":34.667599},"country":"US","_id":4.448921E6},
{"name":"Tuolumne County","coord":{"lon":-119.901009,"lat":38.066589},"country":"US","_id":5.403973E6},
{"name":"Tift County","coord":{"lon":-83.50016,"lat":31.45019},"country":"US","_id":4.226538E6},
{"name":"Terrace Aires","coord":{"lon":-84.410278,"lat":41.501942},"country":"US","_id":8.114231E6},
{"name":"Tippecanoe County","coord":{"lon":-86.890556,"lat":40.417259},"country":"US","_id":4.92723E6},
{"name":"Trinity County","coord":{"lon":-123.167809,"lat":40.583199},"country":"US","_id":5.553701E6},
{"name":"The Willows","coord":{"lon":-116.722519,"lat":32.83477},"country":"US","_id":5.402128E6},
{"name":"Two Rock","coord":{"lon":-122.792213,"lat":38.266312},"country":"US","_id":5.404395E6},
{"name":"Tanglewood","coord":{"lon":-85.98777,"lat":36.27533},"country":"US","_id":4.661626E6},
{"name":"Talladega County","coord":{"lon":-86.183311,"lat":33.366779},"country":"US","_id":4.092795E6},
{"name":"Tuckahoe","coord":{"lon":-72.410919,"lat":40.898991},"country":"US","_id":5.141527E6},
{"name":"Thorntonville","coord":{"lon":-102.920708,"lat":31.582911},"country":"US","_id":5.532286E6},
{"name":"Tanglewood Estates","coord":{"lon":-72.306473,"lat":42.958141},"country":"US","_id":5.093467E6},
{"name":"Terre Coupee","coord":{"lon":-86.477242,"lat":41.702271},"country":"US","_id":4.927129E6},
{"name":"Tarrant County","coord":{"lon":-97.300293,"lat":32.7668},"country":"US","_id":4.735638E6},
{"name":"Tarrant","coord":{"lon":-97.077232,"lat":32.816799},"country":"US","_id":4.735636E6},
{"name":"Tipton","coord":{"lon":-91.127937,"lat":41.769741},"country":"US","_id":4.878643E6},
{"name":"Tonopah","coord":{"lon":-112.937119,"lat":33.493649},"country":"US","_id":5.284678E6},
{"name":"Talbot County","coord":{"lon":-76.083,"lat":38.766781},"country":"US","_id":4.370904E6},
{"name":"Tippah County","coord":{"lon":-88.926453,"lat":34.776482},"country":"US","_id":4.448467E6},
{"name":"Tuscarawas County","coord":{"lon":-81.466499,"lat":40.450069},"country":"US","_id":5.174499E6},
{"name":"Tinker Tavern Corner","coord":{"lon":-76.127983,"lat":43.506741},"country":"US","_id":5.141037E6},
{"name":"Trempealeau County","coord":{"lon":-91.350159,"lat":44.316631},"country":"US","_id":5.276086E6},
{"name":"Toole County","coord":{"lon":-111.634178,"lat":48.64999},"country":"US","_id":5.68281E6},
{"name":"Torrington","coord":{"lon":-104.184387,"lat":42.062462},"country":"US","_id":5.841207E6},
{"name":"Terrell","coord":{"lon":-96.275261,"lat":32.735958},"country":"US","_id":4.736028E6},
{"name":"Tom Green County","coord":{"lon":-100.467041,"lat":31.40016},"country":"US","_id":5.532405E6},
{"name":"Timber Ridge","coord":{"lon":-78.724739,"lat":33.806011},"country":"US","_id":4.598678E6},
{"name":"Tangier","coord":{"lon":-99.533447,"lat":36.420872},"country":"US","_id":4.552751E6},
{"name":"Tulsa County","coord":{"lon":-95.900269,"lat":36.100101},"country":"US","_id":4.55344E6},
{"name":"Trumbull County","coord":{"lon":-80.766472,"lat":41.316719},"country":"US","_id":5.174418E6},
{"name":"Tompkins County","coord":{"lon":-76.466331,"lat":42.450069},"country":"US","_id":5.141153E6},
{"name":"Teterboro","coord":{"lon":-74.059311,"lat":40.859821},"country":"US","_id":5.105333E6},
{"name":"Tanglewood Estates","coord":{"lon":-78.900581,"lat":34.99044},"country":"US","_id":4.494449E6},
{"name":"Thiels West Trailer Court","coord":{"lon":-109.74659,"lat":48.548611},"country":"US","_id":5.682159E6},
{"name":"Townley","coord":{"lon":-89.96981,"lat":36.616718},"country":"US","_id":4.411926E6},
{"name":"Traulich Estates","coord":{"lon":-94.486107,"lat":44.33889},"country":"US","_id":5.050322E6},
{"name":"Town and Country Mobile Village","coord":{"lon":-85.602783,"lat":44.741669},"country":"US","_id":7.225018E6},
{"name":"Trenton","coord":{"lon":-68.370018,"lat":44.438969},"country":"US","_id":4.981078E6},
{"name":"Toombs County","coord":{"lon":-82.333183,"lat":32.133518},"country":"US","_id":4.226802E6},
{"name":"Troup County","coord":{"lon":-85.033272,"lat":33.033459},"country":"US","_id":4.227166E6},
{"name":"Trailer Haven Mobile Home Park","coord":{"lon":-80.631111,"lat":28.089689},"country":"US","_id":7.19182E6},
{"name":"Trailer Terrace Mobile Home Park","coord":{"lon":-81.69442,"lat":30.243191},"country":"US","_id":7.189969E6},
{"name":"Terio's Mobile Home Park","coord":{"lon":-81.786011,"lat":27.92857},"country":"US","_id":7.189495E6},
{"name":"Travis Field","coord":{"lon":-121.932739,"lat":38.272141},"country":"US","_id":5.403312E6},
{"name":"Thermal","coord":{"lon":-116.13945,"lat":33.640301},"country":"US","_id":5.402152E6},
{"name":"Toksook Bay","coord":{"lon":-165.103653,"lat":60.533779},"country":"US","_id":5.876385E6},
{"name":"Tin City","coord":{"lon":-167.948059,"lat":65.558609},"country":"US","_id":5.876265E6},
{"name":"Teller","coord":{"lon":-166.360825,"lat":65.263611},"country":"US","_id":5.875969E6},
{"name":"Turnagain Heights","coord":{"lon":-149.941391,"lat":61.195831},"country":"US","_id":5.876855E6},
{"name":"Talladega","coord":{"lon":-86.105797,"lat":33.43594},"country":"US","_id":4.092788E6},
{"name":"Tillmans Corner","coord":{"lon":-88.170837,"lat":30.590191},"country":"US","_id":4.093753E6},
{"name":"Trussville","coord":{"lon":-86.608879,"lat":33.619831},"country":"US","_id":4.094212E6},
{"name":"Tuscaloosa","coord":{"lon":-87.569168,"lat":33.209839},"country":"US","_id":4.094455E6},
{"name":"Tallahassee","coord":{"lon":-84.280731,"lat":30.438259},"country":"US","_id":4.174715E6},
{"name":"Tamarac","coord":{"lon":-80.249771,"lat":26.21286},"country":"US","_id":4.174738E6},
{"name":"Tamiami","coord":{"lon":-80.398392,"lat":25.758711},"country":"US","_id":4.174744E6},
{"name":"Tampa","coord":{"lon":-82.458427,"lat":27.947519},"country":"US","_id":4.174757E6},
{"name":"Tarpon Springs","coord":{"lon":-82.756767,"lat":28.14612},"country":"US","_id":4.174855E6},
{"name":"Temple Terrace","coord":{"lon":-82.389259,"lat":28.035299},"country":"US","_id":4.174969E6},
{"name":"The Crossings","coord":{"lon":-80.401169,"lat":25.67066},"country":"US","_id":4.175091E6},
{"name":"The Hammocks","coord":{"lon":-80.444504,"lat":25.67149},"country":"US","_id":4.175117E6},
{"name":"Three Lakes","coord":{"lon":-80.398392,"lat":25.64205},"country":"US","_id":4.175296E6},
{"name":"Titusville","coord":{"lon":-80.807549,"lat":28.612221},"country":"US","_id":4.175437E6},
{"name":"Town n Country","coord":{"lon":-82.577316,"lat":28.010571},"country":"US","_id":4.175538E6},
{"name":"Tucker","coord":{"lon":-84.21714,"lat":33.854549},"country":"US","_id":4.227213E6},
{"name":"Topeka","coord":{"lon":-95.67804,"lat":39.048328},"country":"US","_id":4.280539E6},
{"name":"Terrytown","coord":{"lon":-90.03257,"lat":29.9102},"country":"US","_id":4.343327E6},
{"name":"Takoma Park","coord":{"lon":-77.007477,"lat":38.97789},"country":"US","_id":4.37089E6},
{"name":"Towson","coord":{"lon":-76.601913,"lat":39.401501},"country":"US","_id":4.371582E6},
{"name":"Tupelo","coord":{"lon":-88.703392,"lat":34.25761},"country":"US","_id":4.448903E6},
{"name":"Thomasville","coord":{"lon":-80.081993,"lat":35.882641},"country":"US","_id":4.494942E6},
{"name":"Toms River","coord":{"lon":-74.197922,"lat":39.953732},"country":"US","_id":4.504476E6},
{"name":"Trotwood","coord":{"lon":-84.311333,"lat":39.797279},"country":"US","_id":4.526576E6},
{"name":"Tulsa","coord":{"lon":-95.992783,"lat":36.15398},"country":"US","_id":4.553433E6},
{"name":"Taylors","coord":{"lon":-82.296227,"lat":34.920391},"country":"US","_id":4.598353E6},
{"name":"Taylor","coord":{"lon":-97.409439,"lat":30.570761},"country":"US","_id":4.735702E6},
{"name":"Temple","coord":{"lon":-97.342781,"lat":31.09823},"country":"US","_id":4.735966E6},
{"name":"Texas City","coord":{"lon":-94.902702,"lat":29.383841},"country":"US","_id":4.736134E6},
{"name":"The Colony","coord":{"lon":-96.886391,"lat":33.089008},"country":"US","_id":4.736388E6},
{"name":"The Woodlands","coord":{"lon":-95.48938,"lat":30.15799},"country":"US","_id":4.736476E6},
{"name":"Tyler","coord":{"lon":-95.301064,"lat":32.351261},"country":"US","_id":4.738214E6},
{"name":"Tuckahoe","coord":{"lon":-77.556381,"lat":37.590149},"country":"US","_id":4.790207E6},
{"name":"Tysons Corner","coord":{"lon":-77.231087,"lat":38.91872},"country":"US","_id":4.790534E6},
{"name":"Torrington","coord":{"lon":-73.121223,"lat":41.800652},"country":"US","_id":4.844309E6},
{"name":"Trumbull","coord":{"lon":-73.200668,"lat":41.24287},"country":"US","_id":4.844459E6},
{"name":"Tinley Park","coord":{"lon":-87.784492,"lat":41.573372},"country":"US","_id":4.913723E6},
{"name":"Taunton","coord":{"lon":-71.089767,"lat":41.900101},"country":"US","_id":4.952629E6},
{"name":"Tewksbury","coord":{"lon":-71.234222,"lat":42.610649},"country":"US","_id":4.952762E6},
{"name":"Taylor","coord":{"lon":-83.269653,"lat":42.240871},"country":"US","_id":5.011908E6},
{"name":"Trenton","coord":{"lon":-83.178261,"lat":42.139488},"country":"US","_id":5.012521E6},
{"name":"Troy","coord":{"lon":-83.149933,"lat":42.605591},"country":"US","_id":5.012639E6},
{"name":"Teaneck","coord":{"lon":-74.015968,"lat":40.897598},"country":"US","_id":5.105262E6},
{"name":"Tinton Falls","coord":{"lon":-74.100418,"lat":40.304279},"country":"US","_id":5.105433E6},
{"name":"Trenton","coord":{"lon":-74.742943,"lat":40.217049},"country":"US","_id":5.105496E6},
{"name":"Tonawanda","coord":{"lon":-78.880318,"lat":43.020329},"country":"US","_id":5.141175E6},
{"name":"Troy","coord":{"lon":-73.691788,"lat":42.728409},"country":"US","_id":5.141502E6},
{"name":"Tallmadge","coord":{"lon":-81.44178,"lat":41.101452},"country":"US","_id":5.173623E6},
{"name":"Tiffin","coord":{"lon":-83.177971,"lat":41.114498},"country":"US","_id":5.17393E6},
{"name":"Toledo","coord":{"lon":-83.555206,"lat":41.66394},"country":"US","_id":5.174035E6},
{"name":"Troy","coord":{"lon":-84.203278,"lat":40.039501},"country":"US","_id":5.174358E6},
{"name":"Twinsburg","coord":{"lon":-81.440109,"lat":41.312561},"country":"US","_id":5.17455E6},
{"name":"Tanque Verde","coord":{"lon":-110.737312,"lat":32.25174},"country":"US","_id":5.31689E6},
{"name":"Tempe","coord":{"lon":-111.909309,"lat":33.414768},"country":"US","_id":5.317058E6},
{"name":"Tempe Junction","coord":{"lon":-111.943481,"lat":33.414211},"country":"US","_id":5.317071E6},
{"name":"Tucson","coord":{"lon":-110.926483,"lat":32.221741},"country":"US","_id":5.318313E6},
{"name":"Temecula","coord":{"lon":-117.148361,"lat":33.493641},"country":"US","_id":5.401395E6},
{"name":"Temple City","coord":{"lon":-118.057854,"lat":34.107231},"country":"US","_id":5.401469E6},
{"name":"Thousand Oaks","coord":{"lon":-118.837593,"lat":34.170559},"country":"US","_id":5.402405E6},
{"name":"Torrance","coord":{"lon":-118.34063,"lat":33.83585},"country":"US","_id":5.403022E6},
{"name":"Tracy","coord":{"lon":-121.425217,"lat":37.739651},"country":"US","_id":5.403191E6},
{"name":"Truckee","coord":{"lon":-120.18325,"lat":39.327961},"country":"US","_id":5.403676E6},
{"name":"Tustin","coord":{"lon":-117.826172,"lat":33.74585},"country":"US","_id":5.404119E6},
{"name":"Thornton","coord":{"lon":-104.971916,"lat":39.868038},"country":"US","_id":5.441492E6},
{"name":"Tigard","coord":{"lon":-122.771492,"lat":45.431229},"country":"US","_id":5.756758E6},
{"name":"Troutdale","coord":{"lon":-122.387306,"lat":45.539291},"country":"US","_id":5.757477E6},
{"name":"Tualatin","coord":{"lon":-122.763992,"lat":45.38401},"country":"US","_id":5.757506E6},
{"name":"Taylorsville","coord":{"lon":-111.938828,"lat":40.667721},"country":"US","_id":5.782476E6},
{"name":"Tooele","coord":{"lon":-112.298279,"lat":40.530781},"country":"US","_id":5.783695E6},
{"name":"Tacoma","coord":{"lon":-122.44429,"lat":47.25288},"country":"US","_id":5.812944E6},
{"name":"Tukwila","coord":{"lon":-122.260963,"lat":47.473991},"country":"US","_id":5.814043E6},
{"name":"Tumwater","coord":{"lon":-122.909309,"lat":47.00732},"country":"US","_id":5.814095E6},
{"name":"Tonawanda","coord":{"lon":-78.877983,"lat":42.984989},"country":"US","_id":7.259084E6},
{"name":"Trinity","coord":{"lon":-82.68177,"lat":28.180849},"country":"US","_id":4.047906E6},
{"name":"Turpin Hills","coord":{"lon":-84.379936,"lat":39.110062},"country":"US","_id":4.050118E6},
{"name":"Tallassee","coord":{"lon":-85.893288,"lat":32.535969},"country":"US","_id":4.092853E6},
{"name":"Tarrant","coord":{"lon":-86.772774,"lat":33.583439},"country":"US","_id":4.09297E6},
{"name":"Taylor","coord":{"lon":-85.468269,"lat":31.1649},"country":"US","_id":4.093048E6},
{"name":"Taylor","coord":{"lon":-86.233299,"lat":31.97543},"country":"US","_id":4.09305E6},
{"name":"Theodore","coord":{"lon":-88.175278,"lat":30.547689},"country":"US","_id":4.093399E6},
{"name":"Thomasville","coord":{"lon":-87.73584,"lat":31.91349},"country":"US","_id":4.093488E6},
{"name":"Thorsby","coord":{"lon":-86.71582,"lat":32.91568},"country":"US","_id":4.093619E6},
{"name":"Town Creek","coord":{"lon":-87.406128,"lat":34.681198},"country":"US","_id":4.093897E6},
{"name":"Trinity","coord":{"lon":-87.088348,"lat":34.606758},"country":"US","_id":4.094048E6},
{"name":"Tuscumbia","coord":{"lon":-87.70253,"lat":34.731201},"country":"US","_id":4.094484E6},
{"name":"Tuskegee","coord":{"lon":-85.69162,"lat":32.42403},"country":"US","_id":4.09449E6},
{"name":"Tontitown","coord":{"lon":-94.233543,"lat":36.17786},"country":"US","_id":4.133707E6},
{"name":"Trumann","coord":{"lon":-90.507332,"lat":35.673691},"country":"US","_id":4.133933E6},
{"name":"Tuckerman","coord":{"lon":-91.198463,"lat":35.730629},"country":"US","_id":4.133971E6},
{"name":"Townsend","coord":{"lon":-75.691597,"lat":39.395111},"country":"US","_id":4.145047E6},
{"name":"Taft","coord":{"lon":-81.365067,"lat":28.429729},"country":"US","_id":4.1747E6},
{"name":"Tangelo Park","coord":{"lon":-81.4459,"lat":28.455839},"country":"US","_id":4.174791E6},
{"name":"Tangerine","coord":{"lon":-81.63063,"lat":28.76499},"country":"US","_id":4.174793E6},
{"name":"Tavares","coord":{"lon":-81.725632,"lat":28.804159},"country":"US","_id":4.174861E6},
{"name":"Tavernier","coord":{"lon":-80.51506,"lat":25.01152},"country":"US","_id":4.17487E6},
{"name":"Taylor Creek","coord":{"lon":-80.789497,"lat":27.216709},"country":"US","_id":4.174888E6},
{"name":"Tedder","coord":{"lon":-80.122269,"lat":26.28425},"country":"US","_id":4.174921E6},
{"name":"Tequesta","coord":{"lon":-80.128647,"lat":26.968109},"country":"US","_id":4.175011E6},
{"name":"Terra Mar","coord":{"lon":-80.095322,"lat":26.21619},"country":"US","_id":4.175022E6},
{"name":"The Meadows","coord":{"lon":-82.468979,"lat":27.36171},"country":"US","_id":4.175136E6},
{"name":"Thonotosassa","coord":{"lon":-82.302307,"lat":28.061411},"country":"US","_id":4.175269E6},
{"name":"Three Oaks","coord":{"lon":-81.793968,"lat":26.470079},"country":"US","_id":4.175298E6},
{"name":"Tice","coord":{"lon":-81.815079,"lat":26.674789},"country":"US","_id":4.175319E6},
{"name":"Tierra Verde","coord":{"lon":-82.723427,"lat":27.691971},"country":"US","_id":4.175331E6},
{"name":"Tiger Point","coord":{"lon":-87.055519,"lat":30.378531},"country":"US","_id":4.175363E6},
{"name":"Timber Pines","coord":{"lon":-82.603157,"lat":28.47028},"country":"US","_id":4.175391E6},
{"name":"Treasure Island","coord":{"lon":-82.76899,"lat":27.76919},"country":"US","_id":4.175626E6},
{"name":"Trenton","coord":{"lon":-82.817619,"lat":29.613291},"country":"US","_id":4.175637E6},
{"name":"Twin Lakes","coord":{"lon":-80.160049,"lat":26.18092},"country":"US","_id":4.175993E6},
{"name":"Talbotton","coord":{"lon":-84.539368,"lat":32.677639},"country":"US","_id":4.225613E6},
{"name":"Tallapoosa","coord":{"lon":-85.28801,"lat":33.744549},"country":"US","_id":4.225658E6},
{"name":"Temple","coord":{"lon":-85.03244,"lat":33.737049},"country":"US","_id":4.225973E6},
{"name":"Tennille","coord":{"lon":-82.811531,"lat":32.935989},"country":"US","_id":4.226031E6},
{"name":"Thomaston","coord":{"lon":-84.326591,"lat":32.888191},"country":"US","_id":4.226364E6},
{"name":"Thomson","coord":{"lon":-82.50457,"lat":33.470692},"country":"US","_id":4.226435E6},
{"name":"Thunderbolt","coord":{"lon":-81.049828,"lat":32.033539},"country":"US","_id":4.226499E6},
{"name":"Toccoa","coord":{"lon":-83.33239,"lat":34.57732},"country":"US","_id":4.226722E6},
{"name":"Trenton","coord":{"lon":-85.509132,"lat":34.872021},"country":"US","_id":4.227012E6},
{"name":"Trion","coord":{"lon":-85.310509,"lat":34.543968},"country":"US","_id":4.227128E6},
{"name":"Twin City","coord":{"lon":-82.155121,"lat":32.582939},"country":"US","_id":4.227521E6},
{"name":"Tybee Island","coord":{"lon":-80.845673,"lat":32.000221},"country":"US","_id":4.227593E6},
{"name":"Tyrone","coord":{"lon":-84.597153,"lat":33.47123},"country":"US","_id":4.227612E6},
{"name":"Taylorville","coord":{"lon":-89.294533,"lat":39.548939},"country":"US","_id":4.251141E6},
{"name":"Teutopolis","coord":{"lon":-88.471992,"lat":39.133099},"country":"US","_id":4.251185E6},
{"name":"Toledo","coord":{"lon":-88.243652,"lat":39.273651},"country":"US","_id":4.25133E6},
{"name":"Tolono","coord":{"lon":-88.258942,"lat":39.986141},"country":"US","_id":4.251341E6},
{"name":"Troy","coord":{"lon":-89.883148,"lat":38.72921},"country":"US","_id":4.251513E6},
{"name":"Tuscola","coord":{"lon":-88.283096,"lat":39.799198},"country":"US","_id":4.251593E6},
{"name":"Tell City","coord":{"lon":-86.767769,"lat":37.951439},"country":"US","_id":4.265717E6},
{"name":"Trafalgar","coord":{"lon":-86.150818,"lat":39.416161},"country":"US","_id":4.265912E6},
{"name":"Tonganoxie","coord":{"lon":-95.087753,"lat":39.109718},"country":"US","_id":4.280502E6},
{"name":"Towanda","coord":{"lon":-96.999763,"lat":37.79752},"country":"US","_id":4.280531E6},
{"name":"Troy","coord":{"lon":-95.089973,"lat":39.783051},"country":"US","_id":4.28066E6},
{"name":"Taylor Mill","coord":{"lon":-84.49633,"lat":38.997559},"country":"US","_id":4.310616E6},
{"name":"Taylorsville","coord":{"lon":-85.342453,"lat":38.031731},"country":"US","_id":4.310638E6},
{"name":"Tompkinsville","coord":{"lon":-85.691643,"lat":36.702278},"country":"US","_id":4.311035E6},
{"name":"Tallulah","coord":{"lon":-91.186783,"lat":32.408482},"country":"US","_id":4.343103E6},
{"name":"Thibodaux","coord":{"lon":-90.822868,"lat":29.795759},"country":"US","_id":4.343429E6},
{"name":"Timberlane","coord":{"lon":-90.032021,"lat":29.87743},"country":"US","_id":4.343659E6},
{"name":"Taneytown","coord":{"lon":-77.174431,"lat":39.657879},"country":"US","_id":4.370931E6},
{"name":"Temple Hills","coord":{"lon":-76.945534,"lat":38.813999},"country":"US","_id":4.371053E6},
{"name":"Thurmont","coord":{"lon":-77.41082,"lat":39.623711},"country":"US","_id":4.371334E6},
{"name":"Timonium","coord":{"lon":-76.61969,"lat":39.43705},"country":"US","_id":4.37142E6},
{"name":"Trappe","coord":{"lon":-76.057999,"lat":38.658451},"country":"US","_id":4.37162E6},
{"name":"Travilah","coord":{"lon":-77.263039,"lat":39.069},"country":"US","_id":4.371635E6},
{"name":"Thayer","coord":{"lon":-91.5382,"lat":36.524509},"country":"US","_id":4.411477E6},
{"name":"Tipton","coord":{"lon":-92.779922,"lat":38.655579},"country":"US","_id":4.411809E6},
{"name":"Town and Country","coord":{"lon":-90.463448,"lat":38.612282},"country":"US","_id":4.411912E6},
{"name":"Troy","coord":{"lon":-90.980698,"lat":38.979488},"country":"US","_id":4.412089E6},
{"name":"Tuscumbia","coord":{"lon":-92.458519,"lat":38.233089},"country":"US","_id":4.412325E6},
{"name":"Taylorsville","coord":{"lon":-89.428123,"lat":31.829599},"country":"US","_id":4.448074E6},
{"name":"Tchula","coord":{"lon":-90.222862,"lat":33.182899},"country":"US","_id":4.448086E6},
{"name":"Terry","coord":{"lon":-90.294258,"lat":32.09626},"country":"US","_id":4.448168E6},
{"name":"Tunica","coord":{"lon":-90.382881,"lat":34.684551},"country":"US","_id":4.448894E6},
{"name":"Tutwiler","coord":{"lon":-90.431763,"lat":34.014832},"country":"US","_id":4.449055E6},
{"name":"Tylertown","coord":{"lon":-90.142029,"lat":31.116011},"country":"US","_id":4.449106E6},
{"name":"Tabor City","coord":{"lon":-78.876694,"lat":34.148781},"country":"US","_id":4.494408E6},
{"name":"Tarboro","coord":{"lon":-77.535797,"lat":35.89682},"country":"US","_id":4.494513E6},
{"name":"Taylorsville","coord":{"lon":-81.176468,"lat":35.921799},"country":"US","_id":4.49465E6},
{"name":"Thurmond","coord":{"lon":-80.928413,"lat":36.36652},"country":"US","_id":4.495078E6},
{"name":"Toast","coord":{"lon":-80.62645,"lat":36.500408},"country":"US","_id":4.495169E6},
{"name":"Tobaccoville","coord":{"lon":-80.371437,"lat":36.23819},"country":"US","_id":4.495175E6},
{"name":"Trent Woods","coord":{"lon":-77.086342,"lat":35.0821},"country":"US","_id":4.495583E6},
{"name":"Trenton","coord":{"lon":-77.352737,"lat":35.067101},"country":"US","_id":4.495585E6},
{"name":"Trinity","coord":{"lon":-79.990868,"lat":35.894581},"country":"US","_id":4.495616E6},
{"name":"Troutman","coord":{"lon":-80.88813,"lat":35.700691},"country":"US","_id":4.49571E6},
{"name":"Troy","coord":{"lon":-79.894493,"lat":35.358471},"country":"US","_id":4.495714E6},
{"name":"Tryon","coord":{"lon":-82.238449,"lat":35.208172},"country":"US","_id":4.495749E6},
{"name":"Tryon","coord":{"lon":-81.322029,"lat":35.339859},"country":"US","_id":4.495762E6},
{"name":"Tyro","coord":{"lon":-80.372833,"lat":35.809029},"country":"US","_id":4.496065E6},
{"name":"Tuckerton","coord":{"lon":-74.340141,"lat":39.603168},"country":"US","_id":4.504525E6},
{"name":"Turnersville","coord":{"lon":-75.051277,"lat":39.77317},"country":"US","_id":4.504536E6},
{"name":"Terrace Park","coord":{"lon":-84.307159,"lat":39.159229},"country":"US","_id":4.526172E6},
{"name":"The Plains","coord":{"lon":-82.13237,"lat":39.368961},"country":"US","_id":4.526215E6},
{"name":"The Village of Indian Hill","coord":{"lon":-84.295769,"lat":39.249779},"country":"US","_id":4.526225E6},
{"name":"Thornport","coord":{"lon":-82.410988,"lat":39.91312},"country":"US","_id":4.526284E6},
{"name":"Tipp City","coord":{"lon":-84.172157,"lat":39.958389},"country":"US","_id":4.526365E6},
{"name":"Trenton","coord":{"lon":-84.457718,"lat":39.480888},"country":"US","_id":4.526469E6},
{"name":"Talihina","coord":{"lon":-95.048019,"lat":34.751492},"country":"US","_id":4.552725E6},
{"name":"Taloga","coord":{"lon":-98.963707,"lat":36.038651},"country":"US","_id":4.55274E6},
{"name":"Tecumseh","coord":{"lon":-96.936691,"lat":35.257851},"country":"US","_id":4.55282E6},
{"name":"Temple","coord":{"lon":-98.235878,"lat":34.27203},"country":"US","_id":4.55284E6},
{"name":"Texanna","coord":{"lon":-95.43692,"lat":35.347321},"country":"US","_id":4.552897E6},
{"name":"The Village","coord":{"lon":-97.55143,"lat":35.56089},"country":"US","_id":4.552969E6},
{"name":"Thomas","coord":{"lon":-98.747581,"lat":35.744221},"country":"US","_id":4.552981E6},
{"name":"Tishomingo","coord":{"lon":-96.678612,"lat":34.23621},"country":"US","_id":4.553126E6},
{"name":"Tonkawa","coord":{"lon":-97.310043,"lat":36.678371},"country":"US","_id":4.55316E6},
{"name":"Turley","coord":{"lon":-95.97583,"lat":36.242039},"country":"US","_id":4.553549E6},
{"name":"Tuttle","coord":{"lon":-97.812271,"lat":35.29089},"country":"US","_id":4.553574E6},
{"name":"Thorndale","coord":{"lon":-75.745216,"lat":39.992882},"country":"US","_id":4.561716E6},
{"name":"Toughkenamon","coord":{"lon":-75.757439,"lat":39.831501},"country":"US","_id":4.561755E6},
{"name":"Trainer","coord":{"lon":-75.41436,"lat":39.82761},"country":"US","_id":4.561768E6},
{"name":"Tega Cay","coord":{"lon":-81.027847,"lat":35.024311},"country":"US","_id":4.598379E6},
{"name":"Tigerville","coord":{"lon":-82.368446,"lat":35.068451},"country":"US","_id":4.59865E6},
{"name":"Timmonsville","coord":{"lon":-79.939789,"lat":34.13488},"country":"US","_id":4.598692E6},
{"name":"Travelers Rest","coord":{"lon":-82.443451,"lat":34.967621},"country":"US","_id":4.598865E6},
{"name":"Tazewell","coord":{"lon":-83.569351,"lat":36.45425},"country":"US","_id":4.661964E6},
{"name":"Tennessee Ridge","coord":{"lon":-87.773361,"lat":36.312},"country":"US","_id":4.66217E6},
{"name":"Thompsons Station","coord":{"lon":-86.911392,"lat":35.80201},"country":"US","_id":4.662519E6},
{"name":"Three Way","coord":{"lon":-88.859497,"lat":35.775902},"country":"US","_id":4.662587E6},
{"name":"Tiptonville","coord":{"lon":-89.472023,"lat":36.378399},"country":"US","_id":4.662809E6},
{"name":"Tracy City","coord":{"lon":-85.736076,"lat":35.260361},"country":"US","_id":4.66311E6},
{"name":"Trenton","coord":{"lon":-88.941452,"lat":35.980621},"country":"US","_id":4.663205E6},
{"name":"Troy","coord":{"lon":-89.163963,"lat":36.33868},"country":"US","_id":4.663367E6},
{"name":"Tusculum","coord":{"lon":-82.758759,"lat":36.175098},"country":"US","_id":4.663737E6},
{"name":"Taft","coord":{"lon":-97.398598,"lat":27.97891},"country":"US","_id":4.735458E6},
{"name":"Taft Southwest (historical)","coord":{"lon":-97.403053,"lat":27.973909},"country":"US","_id":4.735467E6},
{"name":"Talty","coord":{"lon":-96.385536,"lat":32.683189},"country":"US","_id":4.735524E6},
{"name":"Tatum","coord":{"lon":-94.516586,"lat":32.31599},"country":"US","_id":4.735674E6},
{"name":"Taylor Lake Village","coord":{"lon":-95.050209,"lat":29.57523},"country":"US","_id":4.735771E6},
{"name":"Teague","coord":{"lon":-96.283859,"lat":31.62711},"country":"US","_id":4.735813E6},
{"name":"Tenaha","coord":{"lon":-94.244087,"lat":31.943781},"country":"US","_id":4.735964E6},
{"name":"Terrell Hills","coord":{"lon":-98.450851,"lat":29.474951},"country":"US","_id":4.736043E6},
{"name":"The Hills","coord":{"lon":-97.985008,"lat":30.34798},"country":"US","_id":4.73642E6},
{"name":"Thorndale","coord":{"lon":-97.205551,"lat":30.61381},"country":"US","_id":4.736681E6},
{"name":"Three Rivers","coord":{"lon":-98.18251,"lat":28.46027},"country":"US","_id":4.736721E6},
{"name":"Throckmorton","coord":{"lon":-99.177582,"lat":33.178719},"country":"US","_id":4.736741E6},
{"name":"Tilden","coord":{"lon":-98.549179,"lat":28.461941},"country":"US","_id":4.736889E6},
{"name":"Timberwood Park","coord":{"lon":-98.478348,"lat":29.70578},"country":"US","_id":4.736922E6},
{"name":"Timpson","coord":{"lon":-94.395203,"lat":31.90378},"country":"US","_id":4.736933E6},
{"name":"Tom Bean","coord":{"lon":-96.483871,"lat":33.520111},"country":"US","_id":4.737052E6},
{"name":"Tomball","coord":{"lon":-95.616051,"lat":30.09716},"country":"US","_id":4.737094E6},
{"name":"Tool","coord":{"lon":-96.17025,"lat":32.267921},"country":"US","_id":4.737151E6},
{"name":"Trinity","coord":{"lon":-95.375504,"lat":30.94519},"country":"US","_id":4.737506E6},
{"name":"Trophy Club","coord":{"lon":-97.183617,"lat":32.997898},"country":"US","_id":4.737676E6},
{"name":"Troup","coord":{"lon":-95.120499,"lat":32.1446},"country":"US","_id":4.737691E6},
{"name":"Troy","coord":{"lon":-97.30278,"lat":31.206841},"country":"US","_id":4.737704E6},
{"name":"Tye","coord":{"lon":-99.871483,"lat":32.457619},"country":"US","_id":4.738207E6},
{"name":"Tappahannock","coord":{"lon":-76.859131,"lat":37.925411},"country":"US","_id":4.788822E6},
{"name":"Tazewell","coord":{"lon":-81.519547,"lat":37.114841},"country":"US","_id":4.788966E6},
{"name":"Timberlake","coord":{"lon":-79.25753,"lat":37.320702},"country":"US","_id":4.789648E6},
{"name":"Timberville","coord":{"lon":-78.773911,"lat":38.639011},"country":"US","_id":4.789655E6},
{"name":"Triangle","coord":{"lon":-77.336647,"lat":38.546791},"country":"US","_id":4.790025E6},
{"name":"Teays Valley","coord":{"lon":-81.929298,"lat":38.450089},"country":"US","_id":4.824469E6},
{"name":"Terra Alta","coord":{"lon":-79.54644,"lat":39.445648},"country":"US","_id":4.824515E6},
{"name":"Tariffville","coord":{"lon":-72.760101,"lat":41.90871},"country":"US","_id":4.831766E6},
{"name":"Terramuggus","coord":{"lon":-72.47036,"lat":41.635101},"country":"US","_id":4.844078E6},
{"name":"Terryville","coord":{"lon":-73.010941,"lat":41.67815},"country":"US","_id":4.844084E6},
{"name":"Thomaston","coord":{"lon":-73.073158,"lat":41.673988},"country":"US","_id":4.844181E6},
{"name":"Thompson","coord":{"lon":-71.862572,"lat":41.95871},"country":"US","_id":4.844184E6},
{"name":"Thompsonville","coord":{"lon":-72.598984,"lat":41.99704},"country":"US","_id":4.8442E6},
{"name":"Tolland","coord":{"lon":-72.36869,"lat":41.87149},"country":"US","_id":4.844273E6},
{"name":"Tabor","coord":{"lon":-95.671387,"lat":40.898331},"country":"US","_id":4.878195E6},
{"name":"Tama","coord":{"lon":-92.576859,"lat":41.96666},"country":"US","_id":4.878229E6},
{"name":"Tiffin","coord":{"lon":-91.662949,"lat":41.705849},"country":"US","_id":4.878585E6},
{"name":"Toledo","coord":{"lon":-92.576859,"lat":41.995548},"country":"US","_id":4.878703E6},
{"name":"Traer","coord":{"lon":-92.465469,"lat":42.1936},"country":"US","_id":4.878795E6},
{"name":"Tripoli","coord":{"lon":-92.258232,"lat":42.808041},"country":"US","_id":4.879018E6},
{"name":"Third Lake","coord":{"lon":-88.01091,"lat":42.373909},"country":"US","_id":4.913515E6},
{"name":"Thomasboro","coord":{"lon":-88.184212,"lat":40.241699},"country":"US","_id":4.913555E6},
{"name":"Thornton","coord":{"lon":-87.608101,"lat":41.568089},"country":"US","_id":4.913605E6},
{"name":"Tilton","coord":{"lon":-87.647522,"lat":40.09531},"country":"US","_id":4.913666E6},
{"name":"Toluca","coord":{"lon":-89.133423,"lat":41.002258},"country":"US","_id":4.91376E6},
{"name":"Toulon","coord":{"lon":-89.86483,"lat":41.093651},"country":"US","_id":4.913799E6},
{"name":"Tower Lake","coord":{"lon":-88.152023,"lat":42.231972},"country":"US","_id":4.913816E6},
{"name":"Tremont","coord":{"lon":-89.492599,"lat":40.527538},"country":"US","_id":4.913892E6},
{"name":"Twin Grove","coord":{"lon":-89.079803,"lat":40.49337},"country":"US","_id":4.914209E6},
{"name":"Thorntown","coord":{"lon":-86.606667,"lat":40.129478},"country":"US","_id":4.927194E6},
{"name":"Tipton","coord":{"lon":-86.0411,"lat":40.282261},"country":"US","_id":4.927242E6},
{"name":"Topeka","coord":{"lon":-85.539711,"lat":41.539219},"country":"US","_id":4.927264E6},
{"name":"Trail Creek","coord":{"lon":-86.8592,"lat":41.698372},"country":"US","_id":4.927291E6},
{"name":"Teaticket","coord":{"lon":-70.595863,"lat":41.564548},"country":"US","_id":4.952663E6},
{"name":"Templeton","coord":{"lon":-72.067581,"lat":42.555641},"country":"US","_id":4.952731E6},
{"name":"Topsfield","coord":{"lon":-70.949501,"lat":42.637589},"country":"US","_id":4.953127E6},
{"name":"Townsend","coord":{"lon":-71.70507,"lat":42.666759},"country":"US","_id":4.953221E6},
{"name":"Truro","coord":{"lon":-70.049751,"lat":41.993439},"country":"US","_id":4.953382E6},
{"name":"Turners Falls","coord":{"lon":-72.55648,"lat":42.604252},"country":"US","_id":4.953473E6},
{"name":"Tyngsboro","coord":{"lon":-71.424507,"lat":42.676762},"country":"US","_id":4.953542E6},
{"name":"Thomaston","coord":{"lon":-69.181709,"lat":44.078972},"country":"US","_id":4.980629E6},
{"name":"Topsham","coord":{"lon":-69.975883,"lat":43.927582},"country":"US","_id":4.980927E6},
{"name":"Tremont","coord":{"lon":-68.35141,"lat":44.253689},"country":"US","_id":4.981071E6},
{"name":"Troy","coord":{"lon":-69.240883,"lat":44.664791},"country":"US","_id":4.98118E6},
{"name":"Turner","coord":{"lon":-70.256172,"lat":44.256458},"country":"US","_id":4.98125E6},
{"name":"Tawas City","coord":{"lon":-83.514702,"lat":44.269459},"country":"US","_id":5.0119E6},
{"name":"Tecumseh","coord":{"lon":-83.944939,"lat":42.003929},"country":"US","_id":5.011973E6},
{"name":"Temperance","coord":{"lon":-83.568817,"lat":41.779209},"country":"US","_id":5.011989E6},
{"name":"Three Rivers","coord":{"lon":-85.632492,"lat":41.943939},"country":"US","_id":5.012194E6},
{"name":"Three Oaks","coord":{"lon":-86.61058,"lat":41.798649},"country":"US","_id":5.012197E6},
{"name":"Traverse City","coord":{"lon":-85.620628,"lat":44.763062},"country":"US","_id":5.012495E6},
{"name":"Trowbridge Park","coord":{"lon":-87.437363,"lat":46.556599},"country":"US","_id":5.012635E6},
{"name":"Twin Lake","coord":{"lon":-86.16478,"lat":43.362789},"country":"US","_id":5.0128E6},
{"name":"Thief River Falls","coord":{"lon":-96.181152,"lat":48.119141},"country":"US","_id":5.04997E6},
{"name":"Tonka Bay","coord":{"lon":-93.59301,"lat":44.908569},"country":"US","_id":5.050214E6},
{"name":"Tracy","coord":{"lon":-95.619179,"lat":44.233292},"country":"US","_id":5.05029E6},
{"name":"Truman","coord":{"lon":-94.437187,"lat":43.827728},"country":"US","_id":5.050603E6},
{"name":"Two Harbors","coord":{"lon":-91.670731,"lat":47.022709},"country":"US","_id":5.050817E6},
{"name":"Tyler","coord":{"lon":-96.134758,"lat":44.278301},"country":"US","_id":5.050847E6},
{"name":"Tarkio","coord":{"lon":-95.377762,"lat":40.440281},"country":"US","_id":5.057486E6},
{"name":"Terre Haute","coord":{"lon":-93.2341,"lat":40.439461},"country":"US","_id":5.057511E6},
{"name":"Trenton","coord":{"lon":-93.616608,"lat":40.078899},"country":"US","_id":5.057562E6},
{"name":"Taylor","coord":{"lon":-99.378723,"lat":41.770279},"country":"US","_id":5.080066E6},
{"name":"Tecumseh","coord":{"lon":-96.196121,"lat":40.366669},"country":"US","_id":5.080098E6},
{"name":"Tekamah","coord":{"lon":-96.22113,"lat":41.77832},"country":"US","_id":5.080113E6},
{"name":"Tamworth","coord":{"lon":-71.26313,"lat":43.859798},"country":"US","_id":5.093469E6},
{"name":"Temple","coord":{"lon":-71.851471,"lat":42.818138},"country":"US","_id":5.093508E6},
{"name":"Thornton","coord":{"lon":-71.675911,"lat":43.892849},"country":"US","_id":5.09363E6},
{"name":"Tilton","coord":{"lon":-71.588959,"lat":43.442299},"country":"US","_id":5.093669E6},
{"name":"Troy","coord":{"lon":-72.18119,"lat":42.823971},"country":"US","_id":5.093821E6},
{"name":"Tuftonboro","coord":{"lon":-71.222008,"lat":43.696468},"country":"US","_id":5.093845E6},
{"name":"Ten Mile Run","coord":{"lon":-74.602226,"lat":40.41301},"country":"US","_id":5.105296E6},
{"name":"Tenafly","coord":{"lon":-73.962921,"lat":40.925381},"country":"US","_id":5.1053E6},
{"name":"Totowa","coord":{"lon":-74.209869,"lat":40.905102},"country":"US","_id":5.105455E6},
{"name":"Twin Rivers","coord":{"lon":-74.491257,"lat":40.264},"country":"US","_id":5.105594E6},
{"name":"Tappan","coord":{"lon":-73.947357,"lat":41.022041},"country":"US","_id":5.140532E6},
{"name":"Tarrytown","coord":{"lon":-73.858749,"lat":41.07621},"country":"US","_id":5.140538E6},
{"name":"Terryville","coord":{"lon":-73.065109,"lat":40.908989},"country":"US","_id":5.140694E6},
{"name":"Thiells","coord":{"lon":-74.017639,"lat":41.210651},"country":"US","_id":5.140789E6},
{"name":"Thomaston","coord":{"lon":-73.713737,"lat":40.786209},"country":"US","_id":5.140849E6},
{"name":"Thornwood","coord":{"lon":-73.779022,"lat":41.123428},"country":"US","_id":5.140895E6},
{"name":"Ticonderoga","coord":{"lon":-73.423447,"lat":43.848671},"country":"US","_id":5.141002E6},
{"name":"Tillson","coord":{"lon":-74.068481,"lat":41.828979},"country":"US","_id":5.141025E6},
{"name":"Tivoli","coord":{"lon":-73.909302,"lat":42.058418},"country":"US","_id":5.141073E6},
{"name":"Town Line","coord":{"lon":-78.577797,"lat":42.89061},"country":"US","_id":5.141246E6},
{"name":"Tribes Hill","coord":{"lon":-74.285133,"lat":42.955349},"country":"US","_id":5.141366E6},
{"name":"Trumansburg","coord":{"lon":-76.666061,"lat":42.54229},"country":"US","_id":5.141508E6},
{"name":"Tuckahoe","coord":{"lon":-73.827362,"lat":40.950378},"country":"US","_id":5.141528E6},
{"name":"Tupper Lake","coord":{"lon":-74.464058,"lat":44.223949},"country":"US","_id":5.14158E6},
{"name":"Tiltonsville","coord":{"lon":-80.699799,"lat":40.16674},"country":"US","_id":5.173962E6},
{"name":"Toronto","coord":{"lon":-80.600906,"lat":40.46423},"country":"US","_id":5.174095E6},
{"name":"Tuscarawas","coord":{"lon":-81.407059,"lat":40.394791},"country":"US","_id":5.174495E6},
{"name":"Tamaqua","coord":{"lon":-75.969368,"lat":40.79731},"country":"US","_id":5.215142E6},
{"name":"Tannersville","coord":{"lon":-75.30574,"lat":41.040089},"country":"US","_id":5.215193E6},
{"name":"Tarentum","coord":{"lon":-79.759773,"lat":40.60146},"country":"US","_id":5.215215E6},
{"name":"Tatamy","coord":{"lon":-75.257118,"lat":40.740929},"country":"US","_id":5.215235E6},
{"name":"Taylor","coord":{"lon":-75.706581,"lat":41.394798},"country":"US","_id":5.215247E6},
{"name":"Telford","coord":{"lon":-75.32795,"lat":40.322048},"country":"US","_id":5.215317E6},
{"name":"Temple","coord":{"lon":-75.9216,"lat":40.408699},"country":"US","_id":5.215325E6},
{"name":"Terre Hill","coord":{"lon":-76.050499,"lat":40.157318},"country":"US","_id":5.215373E6},
{"name":"Thompsonville","coord":{"lon":-80.108109,"lat":40.290901},"country":"US","_id":5.215541E6},
{"name":"Throop","coord":{"lon":-75.611847,"lat":41.451469},"country":"US","_id":5.215611E6},
{"name":"Tinicum","coord":{"lon":-75.107674,"lat":40.448441},"country":"US","_id":5.215664E6},
{"name":"Tionesta","coord":{"lon":-79.455879,"lat":41.495338},"country":"US","_id":5.215696E6},
{"name":"Tipton","coord":{"lon":-78.295853,"lat":40.635899},"country":"US","_id":5.215715E6},
{"name":"Titusville","coord":{"lon":-79.67366,"lat":41.626999},"country":"US","_id":5.215726E6},
{"name":"Topton","coord":{"lon":-75.701302,"lat":40.503429},"country":"US","_id":5.215826E6},
{"name":"Towamensing Trails","coord":{"lon":-75.584633,"lat":41.00787},"country":"US","_id":5.215856E6},
{"name":"Towanda","coord":{"lon":-76.442719,"lat":41.767578},"country":"US","_id":5.215859E6},
{"name":"Tower City","coord":{"lon":-76.55246,"lat":40.589249},"country":"US","_id":5.215886E6},
{"name":"Trafford","coord":{"lon":-79.758926,"lat":40.38562},"country":"US","_id":5.215921E6},
{"name":"Trappe","coord":{"lon":-75.476288,"lat":40.19899},"country":"US","_id":5.215947E6},
{"name":"Treasure Lake","coord":{"lon":-78.715858,"lat":41.173389},"country":"US","_id":5.215968E6},
{"name":"Tremont","coord":{"lon":-76.387177,"lat":40.628422},"country":"US","_id":5.215983E6},
{"name":"Trevorton","coord":{"lon":-76.673019,"lat":40.7812},"country":"US","_id":5.215995E6},
{"name":"Trevose","coord":{"lon":-74.981003,"lat":40.139278},"country":"US","_id":5.216E6},
{"name":"Trexlertown","coord":{"lon":-75.605743,"lat":40.548149},"country":"US","_id":5.216013E6},
{"name":"Trooper","coord":{"lon":-75.401848,"lat":40.14983},"country":"US","_id":5.216092E6},
{"name":"Troy","coord":{"lon":-76.78801,"lat":41.785912},"country":"US","_id":5.216182E6},
{"name":"Troy","coord":{"lon":-78.2164,"lat":40.915058},"country":"US","_id":5.216183E6},
{"name":"Trucksville","coord":{"lon":-75.932137,"lat":41.30397},"country":"US","_id":5.216205E6},
{"name":"Tullytown","coord":{"lon":-74.814613,"lat":40.139278},"country":"US","_id":5.216241E6},
{"name":"Tunkhannock","coord":{"lon":-75.946587,"lat":41.538689},"country":"US","_id":5.21626E6},
{"name":"Turtle Creek","coord":{"lon":-79.82505,"lat":40.405899},"country":"US","_id":5.216343E6},
{"name":"Tyrone","coord":{"lon":-78.238617,"lat":40.67062},"country":"US","_id":5.216514E6},
{"name":"Tiverton","coord":{"lon":-71.213379,"lat":41.625938},"country":"US","_id":5.225245E6},
{"name":"Tea","coord":{"lon":-96.835876,"lat":43.446369},"country":"US","_id":5.232316E6},
{"name":"Tyndall","coord":{"lon":-97.862846,"lat":42.993328},"country":"US","_id":5.232489E6},
{"name":"Tainter Lake","coord":{"lon":-91.847679,"lat":44.989128},"country":"US","_id":5.275391E6},
{"name":"Theresa","coord":{"lon":-88.45121,"lat":43.51722},"country":"US","_id":5.275589E6},
{"name":"Thiensville","coord":{"lon":-87.978699,"lat":43.237511},"country":"US","_id":5.275601E6},
{"name":"Thorp","coord":{"lon":-90.799858,"lat":44.961079},"country":"US","_id":5.275704E6},
{"name":"Tichigan","coord":{"lon":-88.197594,"lat":42.828899},"country":"US","_id":5.27576E6},
{"name":"Tomah","coord":{"lon":-90.504021,"lat":43.97858},"country":"US","_id":5.275871E6},
{"name":"Tomahawk","coord":{"lon":-89.729858,"lat":45.471081},"country":"US","_id":5.275884E6},
{"name":"Trempealeau","coord":{"lon":-91.442093,"lat":44.00552},"country":"US","_id":5.276084E6},
{"name":"Turtle Lake","coord":{"lon":-92.14241,"lat":45.394402},"country":"US","_id":5.276435E6},
{"name":"Twin Lakes","coord":{"lon":-88.248154,"lat":42.531132},"country":"US","_id":5.276542E6},
{"name":"Two Rivers","coord":{"lon":-87.569252,"lat":44.153881},"country":"US","_id":5.276609E6},
{"name":"Three Rivers","coord":{"lon":-72.360641,"lat":42.181198},"country":"US","_id":5.280975E6},
{"name":"Taylor","coord":{"lon":-110.091232,"lat":34.465038},"country":"US","_id":5.31696E6},
{"name":"Thatcher","coord":{"lon":-109.759247,"lat":32.849232},"country":"US","_id":5.31717E6},
{"name":"Three Points","coord":{"lon":-111.313713,"lat":32.07674},"country":"US","_id":5.317377E6},
{"name":"Tolleson","coord":{"lon":-112.259323,"lat":33.450039},"country":"US","_id":5.317663E6},
{"name":"Tombstone","coord":{"lon":-110.067581,"lat":31.71287},"country":"US","_id":5.317714E6},
{"name":"Tonto Basin","coord":{"lon":-111.294579,"lat":33.831711},"country":"US","_id":5.317749E6},
{"name":"Tortolita","coord":{"lon":-111.017319,"lat":32.410351},"country":"US","_id":5.317867E6},
{"name":"Tuba City","coord":{"lon":-111.239861,"lat":36.134991},"country":"US","_id":5.318279E6},
{"name":"Tubac","coord":{"lon":-111.045921,"lat":31.612591},"country":"US","_id":5.318288E6},
{"name":"Tucson Estates","coord":{"lon":-111.090927,"lat":32.18758},"country":"US","_id":5.31832E6},
{"name":"Taft","coord":{"lon":-119.456512,"lat":35.142471},"country":"US","_id":5.400877E6},
{"name":"Taft Heights","coord":{"lon":-119.472618,"lat":35.134689},"country":"US","_id":5.40089E6},
{"name":"Tahoe Vista","coord":{"lon":-120.051018,"lat":39.23991},"country":"US","_id":5.400943E6},
{"name":"Tahoma","coord":{"lon":-120.128242,"lat":39.06741},"country":"US","_id":5.400946E6},
{"name":"Talmage","coord":{"lon":-123.167778,"lat":39.133228},"country":"US","_id":5.400996E6},
{"name":"Tara Hills","coord":{"lon":-122.31636,"lat":37.99353},"country":"US","_id":5.401121E6},
{"name":"Tarpey Village","coord":{"lon":-119.700974,"lat":36.793011},"country":"US","_id":5.401133E6},
{"name":"Tehachapi","coord":{"lon":-118.448967,"lat":35.132191},"country":"US","_id":5.401297E6},
{"name":"Temelec","coord":{"lon":-122.49276,"lat":38.266579},"country":"US","_id":5.401408E6},
{"name":"Templeton","coord":{"lon":-120.706001,"lat":35.54969},"country":"US","_id":5.401516E6},
{"name":"Terra Bella","coord":{"lon":-119.044273,"lat":35.962448},"country":"US","_id":5.40167E6},
{"name":"Thermalito","coord":{"lon":-121.586922,"lat":39.51128},"country":"US","_id":5.402159E6},
{"name":"Thornton","coord":{"lon":-121.424667,"lat":38.226028},"country":"US","_id":5.402388E6},
{"name":"Thousand Palms","coord":{"lon":-116.390289,"lat":33.820019},"country":"US","_id":5.402415E6},
{"name":"Tiburon","coord":{"lon":-122.456642,"lat":37.873539},"country":"US","_id":5.402535E6},
{"name":"Tierra Buena","coord":{"lon":-121.666908,"lat":39.148781},"country":"US","_id":5.40257E6},
{"name":"Tipton","coord":{"lon":-119.312057,"lat":36.059399},"country":"US","_id":5.40274E6},
{"name":"Topanga","coord":{"lon":-118.604362,"lat":34.089272},"country":"US","_id":5.402961E6},
{"name":"Toro Canyon","coord":{"lon":-119.56707,"lat":34.419998},"country":"US","_id":5.403E6},
{"name":"Trabuco Canyon","coord":{"lon":-117.585297,"lat":33.660919},"country":"US","_id":5.403172E6},
{"name":"Tuolumne City","coord":{"lon":-120.241302,"lat":37.9627},"country":"US","_id":5.403971E6},
{"name":"Twain Harte","coord":{"lon":-120.232689,"lat":38.03965},"country":"US","_id":5.404141E6},
{"name":"Twin Lakes","coord":{"lon":-121.998016,"lat":36.967449},"country":"US","_id":5.404274E6},
{"name":"Telluride","coord":{"lon":-107.812286,"lat":37.937489},"country":"US","_id":5.441199E6},
{"name":"The Pinery","coord":{"lon":-104.734421,"lat":39.455269},"country":"US","_id":5.441384E6},
{"name":"Todd Creek","coord":{"lon":-104.873306,"lat":39.978039},"country":"US","_id":5.441653E6},
{"name":"Towaoc","coord":{"lon":-108.729538,"lat":37.204441},"country":"US","_id":5.441792E6},
{"name":"Trinidad","coord":{"lon":-104.500542,"lat":37.16946},"country":"US","_id":5.442007E6},
{"name":"Twin Lakes","coord":{"lon":-105.0047,"lat":39.824989},"country":"US","_id":5.442271E6},
{"name":"Tribune","coord":{"lon":-101.75267,"lat":38.469742},"country":"US","_id":5.446643E6},
{"name":"Taos Pueblo","coord":{"lon":-105.544449,"lat":36.438641},"country":"US","_id":5.493798E6},
{"name":"Taos","coord":{"lon":-105.573067,"lat":36.407249},"country":"US","_id":5.493811E6},
{"name":"Thoreau","coord":{"lon":-108.223396,"lat":35.402531},"country":"US","_id":5.494395E6},
{"name":"Tierra Amarilla","coord":{"lon":-106.549759,"lat":36.700291},"country":"US","_id":5.494507E6},
{"name":"Tome","coord":{"lon":-106.728363,"lat":34.740891},"country":"US","_id":5.49479E6},
{"name":"Truth or Consequences","coord":{"lon":-107.252808,"lat":33.128399},"country":"US","_id":5.495292E6},
{"name":"Tucumcari","coord":{"lon":-103.724968,"lat":35.171719},"country":"US","_id":5.49536E6},
{"name":"Twin Lakes","coord":{"lon":-108.774811,"lat":35.70919},"country":"US","_id":5.495659E6},
{"name":"Tonopah","coord":{"lon":-117.23008,"lat":38.067162},"country":"US","_id":5.513795E6},
{"name":"Tahoka","coord":{"lon":-101.79377,"lat":33.166759},"country":"US","_id":5.532037E6},
{"name":"Tornillo","coord":{"lon":-106.08831,"lat":31.4454},"country":"US","_id":5.532423E6},
{"name":"Tulia","coord":{"lon":-101.758522,"lat":34.535889},"country":"US","_id":5.53261E6},
{"name":"Toquerville","coord":{"lon":-113.284668,"lat":37.253319},"country":"US","_id":5.548621E6},
{"name":"Three Rivers","coord":{"lon":-118.904541,"lat":36.438839},"country":"US","_id":5.550366E6},
{"name":"Tulelake","coord":{"lon":-121.477493,"lat":41.95599},"country":"US","_id":5.572979E6},
{"name":"Terry","coord":{"lon":-105.31221,"lat":46.79306},"country":"US","_id":5.681948E6},
{"name":"Thompson Falls","coord":{"lon":-115.344322,"lat":47.59716},"country":"US","_id":5.682278E6},
{"name":"Three Forks","coord":{"lon":-111.552193,"lat":45.892429},"country":"US","_id":5.682364E6},
{"name":"Townsend","coord":{"lon":-111.520798,"lat":46.319099},"country":"US","_id":5.682902E6},
{"name":"Tioga","coord":{"lon":-102.93824,"lat":48.39724},"country":"US","_id":5.69259E6},
{"name":"Towner","coord":{"lon":-100.405411,"lat":48.345829},"country":"US","_id":5.692611E6},
{"name":"Terrytown","coord":{"lon":-103.661613,"lat":41.847469},"country":"US","_id":5.700068E6},
{"name":"Thedford","coord":{"lon":-100.576248,"lat":41.978329},"country":"US","_id":5.700094E6},
{"name":"Trenton","coord":{"lon":-101.012939,"lat":40.175549},"country":"US","_id":5.700168E6},
{"name":"Tryon","coord":{"lon":-100.957649,"lat":41.552769},"country":"US","_id":5.700218E6},
{"name":"Tangent","coord":{"lon":-123.108147,"lat":44.541229},"country":"US","_id":5.755975E6},
{"name":"Terrebonne","coord":{"lon":-121.177811,"lat":44.352901},"country":"US","_id":5.75626E6},
{"name":"The Dalles","coord":{"lon":-121.17868,"lat":45.594559},"country":"US","_id":5.756304E6},
{"name":"Three Rivers","coord":{"lon":-121.469193,"lat":43.820122},"country":"US","_id":5.756628E6},
{"name":"Tillamook","coord":{"lon":-123.844009,"lat":45.456219},"country":"US","_id":5.756777E6},
{"name":"Toledo","coord":{"lon":-123.938454,"lat":44.62151},"country":"US","_id":5.757007E6},
{"name":"Tri-City","coord":{"lon":-123.311729,"lat":42.984558},"country":"US","_id":5.757355E6},
{"name":"Turner","coord":{"lon":-122.952873,"lat":44.843182},"country":"US","_id":5.757706E6},
{"name":"Timber Lake","coord":{"lon":-101.074028,"lat":45.42915},"country":"US","_id":5.769772E6},
{"name":"Tremonton","coord":{"lon":-112.165512,"lat":41.711868},"country":"US","_id":5.783768E6},
{"name":"Tanner","coord":{"lon":-121.746223,"lat":47.47538},"country":"US","_id":5.813063E6},
{"name":"Tenino","coord":{"lon":-122.852913,"lat":46.85677},"country":"US","_id":5.813207E6},
{"name":"Terrace Heights","coord":{"lon":-120.439789,"lat":46.606239},"country":"US","_id":5.813249E6},
{"name":"Three Lakes","coord":{"lon":-122.01152,"lat":47.94482},"country":"US","_id":5.813459E6},
{"name":"Tieton","coord":{"lon":-120.755348,"lat":46.702068},"country":"US","_id":5.813532E6},
{"name":"Tonasket","coord":{"lon":-119.439499,"lat":48.705151},"country":"US","_id":5.813726E6},
{"name":"Toppenish","coord":{"lon":-120.30867,"lat":46.37735},"country":"US","_id":5.813747E6},
{"name":"Town and Country","coord":{"lon":-117.421608,"lat":47.72739},"country":"US","_id":5.813814E6},
{"name":"Tracyton","coord":{"lon":-122.655144,"lat":47.608978},"country":"US","_id":5.813832E6},
{"name":"Trentwood","coord":{"lon":-117.210762,"lat":47.69656},"country":"US","_id":5.813889E6},
{"name":"Tulalip","coord":{"lon":-122.291809,"lat":48.068432},"country":"US","_id":5.814047E6},
{"name":"Tulalip Bay","coord":{"lon":-122.310143,"lat":48.037319},"country":"US","_id":5.814048E6},
{"name":"Thermopolis","coord":{"lon":-108.212044,"lat":43.646069},"country":"US","_id":5.840846E6},
{"name":"Tanaina","coord":{"lon":-149.428055,"lat":61.626942},"country":"US","_id":5.875796E6},
{"name":"Tok","coord":{"lon":-142.985565,"lat":63.33667},"country":"US","_id":5.876363E6},
{"name":"Tilton-Northfield","coord":{"lon":-71.593643,"lat":43.443001},"country":"US","_id":7.25764E6},
{"name":"Tsaile","coord":{"lon":-109.21566,"lat":36.303299},"country":"US","_id":7.262401E6},
{"name":"Taft Mosswood","coord":{"lon":-121.283157,"lat":37.913849},"country":"US","_id":7.262653E6},
{"name":"Tamalpais-Homestead Valley","coord":{"lon":-122.536247,"lat":37.878342},"country":"US","_id":7.262659E6},
{"name":"Tanglewilde-Thompson Place","coord":{"lon":-122.780807,"lat":47.051159},"country":"US","_id":7.26266E6} ]
             