
                [ {"name":"Vernon Parish","coord":{"lon":-93.183502,"lat":31.11685},"country":"US","_id":4.344544E6},
{"name":"Valencia West","coord":{"lon":-111.114143,"lat":32.132381},"country":"US","_id":7.26244E6},
{"name":"Vanar","coord":{"lon":-109.095062,"lat":32.241192},"country":"US","_id":5.319409E6},
{"name":"Vanderbilt (historical)","coord":{"lon":-115.978394,"lat":39.424648},"country":"US","_id":5.514336E6},
{"name":"Verona","coord":{"lon":-97.966164,"lat":40.553619},"country":"US","_id":5.081111E6},
{"name":"Volga","coord":{"lon":-91.540977,"lat":42.80471},"country":"US","_id":4.880327E6},
{"name":"Vaughans Crossroads","coord":{"lon":-80.102287,"lat":34.208771},"country":"US","_id":4.599503E6},
{"name":"Verona","coord":{"lon":-79.843102,"lat":40.506458},"country":"US","_id":5.217179E6},
{"name":"Valley View","coord":{"lon":-117.224533,"lat":38.068272},"country":"US","_id":5.514318E6},
{"name":"Venice","coord":{"lon":-82.454262,"lat":27.099779},"country":"US","_id":4.17638E6},
{"name":"Victorville","coord":{"lon":-117.291161,"lat":34.53611},"country":"US","_id":5.406222E6},
{"name":"Visalia","coord":{"lon":-119.292061,"lat":36.330231},"country":"US","_id":5.406567E6},
{"name":"Valley View","coord":{"lon":-93.428261,"lat":38.206139},"country":"US","_id":4.412833E6},
{"name":"Vermont","coord":{"lon":-86.031929,"lat":40.49921},"country":"US","_id":4.927589E6},
{"name":"Valley Vista","coord":{"lon":-117.073082,"lat":33.741409},"country":"US","_id":5.405603E6},
{"name":"Village Mobile Home Park","coord":{"lon":-120.453217,"lat":34.888309},"country":"US","_id":5.406376E6},
{"name":"Van Buren","coord":{"lon":-94.348267,"lat":35.43676},"country":"US","_id":4.134716E6},
{"name":"Volusia County","coord":{"lon":-81.208122,"lat":29.08359},"country":"US","_id":4.176559E6},
{"name":"Valdosta","coord":{"lon":-83.278488,"lat":30.832701},"country":"US","_id":4.228147E6},
{"name":"Vincennes","coord":{"lon":-87.528633,"lat":38.677269},"country":"US","_id":4.266307E6},
{"name":"Vicksburg","coord":{"lon":-90.877876,"lat":32.35265},"country":"US","_id":4.44962E6},
{"name":"Vance County","coord":{"lon":-78.399719,"lat":36.36681},"country":"US","_id":4.496539E6},
{"name":"Victoria County","coord":{"lon":-96.950256,"lat":28.7836},"country":"US","_id":4.739167E6},
{"name":"Valley Farms","coord":{"lon":-96.40554,"lat":32.307919},"country":"US","_id":4.73881E6},
{"name":"Vermont","coord":{"lon":-72.749832,"lat":44.00034},"country":"US","_id":5.242283E6},
{"name":"Ventura County","coord":{"lon":-119.017601,"lat":34.46666},"country":"US","_id":5.405889E6},
{"name":"Venola","coord":{"lon":-119.054268,"lat":35.310791},"country":"US","_id":5.405867E6},
{"name":"Vaughan","coord":{"lon":-78.003601,"lat":36.42654},"country":"US","_id":4.496605E6},
{"name":"Virginia","coord":{"lon":-77.446747,"lat":37.548119},"country":"US","_id":6.254928E6},
{"name":"Viola (historical)","coord":{"lon":-114.385536,"lat":37.2658},"country":"US","_id":5.51441E6},
{"name":"Vandetta","coord":{"lon":-87.425278,"lat":37.451431},"country":"US","_id":4.311983E6},
{"name":"Viola","coord":{"lon":-92.268219,"lat":44.063301},"country":"US","_id":5.051458E6},
{"name":"Valley County","coord":{"lon":-116.126244,"lat":45.12767},"country":"US","_id":5.611156E6},
{"name":"Valdez-Cordova Census Area","coord":{"lon":-144.500565,"lat":61.500561},"country":"US","_id":5.877395E6},
{"name":"Vandenberg Village","coord":{"lon":-110.867867,"lat":32.180359},"country":"US","_id":5.319417E6},
{"name":"Vashti","coord":{"lon":-98.040871,"lat":33.55566},"country":"US","_id":4.738978E6},
{"name":"Valle Vista","coord":{"lon":-113.862709,"lat":35.410881},"country":"US","_id":7.315189E6},
{"name":"Violet (historical)","coord":{"lon":-121.971909,"lat":38.384079},"country":"US","_id":5.406517E6},
{"name":"Valley Oaks Mobile Home Park","coord":{"lon":-123.314728,"lat":39.411831},"country":"US","_id":5.405529E6},
{"name":"Valley View Mobile Home Park","coord":{"lon":-75.531937,"lat":42.558609},"country":"US","_id":7.225262E6},
{"name":"Vienna","coord":{"lon":-88.191971,"lat":33.018742},"country":"US","_id":4.095475E6},
{"name":"Vigo County","coord":{"lon":-87.41391,"lat":39.466702},"country":"US","_id":4.266295E6},
{"name":"Valley Station  (historical)","coord":{"lon":-85.858871,"lat":38.105042},"country":"US","_id":7.260226E6},
{"name":"Village Park","coord":{"lon":-158.030273,"lat":21.39806},"country":"US","_id":5.853965E6},
{"name":"Vermilion Parish","coord":{"lon":-92.300133,"lat":29.816879},"country":"US","_id":4.34453E6},
{"name":"Vernon","coord":{"lon":-88.108917,"lat":33.75705},"country":"US","_id":4.095392E6},
{"name":"Vermillion County","coord":{"lon":-87.40863,"lat":39.884201},"country":"US","_id":4.266252E6},
{"name":"Vivian Park","coord":{"lon":-111.574081,"lat":40.354961},"country":"US","_id":5.784227E6},
{"name":"Van Hornesville","coord":{"lon":-74.827652,"lat":42.895069},"country":"US","_id":5.142171E6},
{"name":"Vanceville","coord":{"lon":-83.44072,"lat":31.43297},"country":"US","_id":4.228221E6},
{"name":"Veteran Heights","coord":{"lon":-122.436089,"lat":38.57407},"country":"US","_id":5.406033E6},
{"name":"Valley Forge (historical)","coord":{"lon":-90.373459,"lat":37.785332},"country":"US","_id":4.412813E6},
{"name":"Vahlsing","coord":{"lon":-97.800003,"lat":28.123899},"country":"US","_id":4.738749E6},
{"name":"Van Buren County","coord":{"lon":-86.033348,"lat":42.250591},"country":"US","_id":5.013104E6},
{"name":"Van Zandt County","coord":{"lon":-95.850243,"lat":32.566799},"country":"US","_id":4.738915E6},
{"name":"Vienna","coord":{"lon":-96.79248,"lat":29.3783},"country":"US","_id":4.739232E6},
{"name":"Valley View","coord":{"lon":-88.966209,"lat":42.222801},"country":"US","_id":4.914628E6},
{"name":"Van","coord":{"lon":-82.873489,"lat":37.151489},"country":"US","_id":4.311953E6},
{"name":"Valley View","coord":{"lon":-97.244453,"lat":31.631001},"country":"US","_id":4.738851E6},
{"name":"Val Verde County","coord":{"lon":-101.083717,"lat":29.83354},"country":"US","_id":5.532889E6},
{"name":"Vienna Center","coord":{"lon":-80.672142,"lat":41.25098},"country":"US","_id":7.259612E6},
{"name":"Vandalia","coord":{"lon":-84.19883,"lat":39.89061},"country":"US","_id":4.527124E6},
{"name":"Valley County","coord":{"lon":-106.650597,"lat":48.43335},"country":"US","_id":5.684246E6},
{"name":"Vichy","coord":{"lon":-91.760437,"lat":38.111431},"country":"US","_id":4.413031E6},
{"name":"Villa Estates Mobile Home Park","coord":{"lon":-83.736107,"lat":42.959721},"country":"US","_id":7.315036E6},
{"name":"Vanderburgh County","coord":{"lon":-87.550568,"lat":38.082821},"country":"US","_id":4.266235E6},
{"name":"Vermilion County","coord":{"lon":-87.75058,"lat":40.166698},"country":"US","_id":4.91471E6},
{"name":"Vanris (historical)","coord":{"lon":-119.700417,"lat":36.77578},"country":"US","_id":5.40576E6},
{"name":"Vestavia Hills","coord":{"lon":-86.787773,"lat":33.448719},"country":"US","_id":4.095415E6},
{"name":"Valrico","coord":{"lon":-82.236443,"lat":27.937889},"country":"US","_id":4.176318E6},
{"name":"Vero Beach","coord":{"lon":-80.39727,"lat":27.638639},"country":"US","_id":4.176409E6},
{"name":"Valley Station","coord":{"lon":-85.870239,"lat":38.111179},"country":"US","_id":4.311963E6},
{"name":"Vineland","coord":{"lon":-75.025726,"lat":39.486229},"country":"US","_id":4.504621E6},
{"name":"Victoria","coord":{"lon":-97.003601,"lat":28.805269},"country":"US","_id":4.739157E6},
{"name":"Vienna","coord":{"lon":-77.265259,"lat":38.901218},"country":"US","_id":4.79116E6},
{"name":"Virginia Beach","coord":{"lon":-75.977982,"lat":36.852928},"country":"US","_id":4.791259E6},
{"name":"Vernon Hills","coord":{"lon":-87.965134,"lat":42.21809},"country":"US","_id":4.914738E6},
{"name":"Villa Park","coord":{"lon":-87.988953,"lat":41.889751},"country":"US","_id":4.91483E6},
{"name":"Valparaiso","coord":{"lon":-87.061142,"lat":41.473091},"country":"US","_id":4.927537E6},
{"name":"Valley Stream","coord":{"lon":-73.708458,"lat":40.664268},"country":"US","_id":5.142109E6},
{"name":"Vacaville","coord":{"lon":-121.98774,"lat":38.356579},"country":"US","_id":5.405228E6},
{"name":"Valinda","coord":{"lon":-117.943672,"lat":34.045292},"country":"US","_id":5.405326E6},
{"name":"Vallejo","coord":{"lon":-122.256638,"lat":38.104092},"country":"US","_id":5.40538E6},
{"name":"Ventura","coord":{"lon":-119.293167,"lat":34.278339},"country":"US","_id":5.405878E6},
{"name":"Vincent","coord":{"lon":-118.116463,"lat":34.500549},"country":"US","_id":5.406421E6},
{"name":"Vista","coord":{"lon":-117.242538,"lat":33.200039},"country":"US","_id":5.406602E6},
{"name":"Vancouver","coord":{"lon":-122.661491,"lat":45.638729},"country":"US","_id":5.814616E6},
{"name":"Vineyard","coord":{"lon":-121.346916,"lat":38.464489},"country":"US","_id":7.176039E6},
{"name":"Vero Beach South","coord":{"lon":-80.413078,"lat":27.616381},"country":"US","_id":7.260233E6},
{"name":"Villas","coord":{"lon":-81.868698,"lat":26.55035},"country":"US","_id":4.047914E6},
{"name":"Valley","coord":{"lon":-85.17939,"lat":32.818741},"country":"US","_id":4.095186E6},
{"name":"Valley Grande","coord":{"lon":-86.987488,"lat":32.509022},"country":"US","_id":4.095213E6},
{"name":"Vandiver","coord":{"lon":-86.513321,"lat":33.470661},"country":"US","_id":4.095288E6},
{"name":"Vance","coord":{"lon":-87.233612,"lat":33.174278},"country":"US","_id":4.095294E6},
{"name":"Vincent","coord":{"lon":-86.411919,"lat":33.384548},"country":"US","_id":4.095522E6},
{"name":"Vilonia","coord":{"lon":-92.207932,"lat":35.083981},"country":"US","_id":4.134871E6},
{"name":"Valparaiso","coord":{"lon":-86.502731,"lat":30.50853},"country":"US","_id":4.176316E6},
{"name":"Vamo","coord":{"lon":-82.497871,"lat":27.222},"country":"US","_id":4.176324E6},
{"name":"Venice Gardens","coord":{"lon":-82.4076,"lat":27.073111},"country":"US","_id":4.176387E6},
{"name":"Villages of Oriole","coord":{"lon":-80.152817,"lat":26.462299},"country":"US","_id":4.176508E6},
{"name":"Villano Beach","coord":{"lon":-81.302017,"lat":29.93858},"country":"US","_id":4.176509E6},
{"name":"Vineyards","coord":{"lon":-81.709251,"lat":26.227871},"country":"US","_id":4.176527E6},
{"name":"Virginia Gardens","coord":{"lon":-80.302269,"lat":25.810381},"country":"US","_id":4.17655E6},
{"name":"Varnell","coord":{"lon":-84.973831,"lat":34.901192},"country":"US","_id":4.228262E6},
{"name":"Vidalia","coord":{"lon":-82.41346,"lat":32.21769},"country":"US","_id":4.228425E6},
{"name":"Vienna","coord":{"lon":-83.795448,"lat":32.09156},"country":"US","_id":4.22844E6},
{"name":"Villa Rica","coord":{"lon":-84.919113,"lat":33.732052},"country":"US","_id":4.228452E6},
{"name":"Vinings","coord":{"lon":-84.464371,"lat":33.86483},"country":"US","_id":4.228518E6},
{"name":"Valmeyer","coord":{"lon":-90.276512,"lat":38.305611},"country":"US","_id":4.2519E6},
{"name":"Vandalia","coord":{"lon":-89.093681,"lat":38.960602},"country":"US","_id":4.251917E6},
{"name":"Venice","coord":{"lon":-90.16983,"lat":38.672272},"country":"US","_id":4.251958E6},
{"name":"Vienna","coord":{"lon":-88.897842,"lat":37.415329},"country":"US","_id":4.252025E6},
{"name":"Villa Grove","coord":{"lon":-88.16227,"lat":39.862808},"country":"US","_id":4.252041E6},
{"name":"Virden","coord":{"lon":-89.767868,"lat":39.500889},"country":"US","_id":4.25206E6},
{"name":"Virginia","coord":{"lon":-90.212341,"lat":39.95116},"country":"US","_id":4.252071E6},
{"name":"Versailles","coord":{"lon":-85.2519,"lat":39.071999},"country":"US","_id":4.266266E6},
{"name":"Vevay","coord":{"lon":-85.067169,"lat":38.747841},"country":"US","_id":4.266278E6},
{"name":"Valley Center","coord":{"lon":-97.373383,"lat":37.834728},"country":"US","_id":4.28091E6},
{"name":"Valley Falls","coord":{"lon":-95.460251,"lat":39.34333},"country":"US","_id":4.280917E6},
{"name":"Victoria","coord":{"lon":-99.147598,"lat":38.852791},"country":"US","_id":4.28101E6},
{"name":"Van Lear","coord":{"lon":-82.757942,"lat":37.77121},"country":"US","_id":4.311959E6},
{"name":"Vanceburg","coord":{"lon":-83.318802,"lat":38.599239},"country":"US","_id":4.311976E6},
{"name":"Verona","coord":{"lon":-84.660782,"lat":38.818401},"country":"US","_id":4.312051E6},
{"name":"Versailles","coord":{"lon":-84.72995,"lat":38.052582},"country":"US","_id":4.312057E6},
{"name":"Villa Hills","coord":{"lon":-84.593002,"lat":39.063389},"country":"US","_id":4.312088E6},
{"name":"Vine Grove","coord":{"lon":-85.981354,"lat":37.81007},"country":"US","_id":4.312096E6},
{"name":"Varnado","coord":{"lon":-89.829521,"lat":30.893801},"country":"US","_id":4.344481E6},
{"name":"Vidalia","coord":{"lon":-91.425949,"lat":31.565439},"country":"US","_id":4.344599E6},
{"name":"Vienna Bend","coord":{"lon":-93.041,"lat":31.732389},"country":"US","_id":4.344623E6},
{"name":"Village Saint George","coord":{"lon":-91.067329,"lat":30.362141},"country":"US","_id":4.344644E6},
{"name":"Ville Platte","coord":{"lon":-92.271523,"lat":30.687969},"country":"US","_id":4.344651E6},
{"name":"Vinton","coord":{"lon":-93.581268,"lat":30.19076},"country":"US","_id":4.344676E6},
{"name":"Violet","coord":{"lon":-89.897842,"lat":29.89576},"country":"US","_id":4.344684E6},
{"name":"Vivian","coord":{"lon":-93.987396,"lat":32.871529},"country":"US","_id":4.344697E6},
{"name":"Valley Park","coord":{"lon":-90.492622,"lat":38.549221},"country":"US","_id":4.41282E6},
{"name":"Van Buren","coord":{"lon":-91.014572,"lat":36.995609},"country":"US","_id":4.412847E6},
{"name":"Vandalia","coord":{"lon":-91.488487,"lat":39.310871},"country":"US","_id":4.412896E6},
{"name":"Velda Village","coord":{"lon":-90.294281,"lat":38.690048},"country":"US","_id":4.412975E6},
{"name":"Velda Village Hills","coord":{"lon":-90.287338,"lat":38.690609},"country":"US","_id":4.412976E6},
{"name":"Versailles","coord":{"lon":-92.841026,"lat":38.431412},"country":"US","_id":4.413013E6},
{"name":"Vienna","coord":{"lon":-91.947113,"lat":38.18671},"country":"US","_id":4.413085E6},
{"name":"Vinita Park","coord":{"lon":-90.342621,"lat":38.690048},"country":"US","_id":4.413136E6},
{"name":"Vancleave","coord":{"lon":-88.687523,"lat":30.54047},"country":"US","_id":4.449532E6},
{"name":"Vardaman","coord":{"lon":-89.177292,"lat":33.875671},"country":"US","_id":4.449552E6},
{"name":"Verona","coord":{"lon":-88.719772,"lat":34.194271},"country":"US","_id":4.449603E6},
{"name":"Valdese","coord":{"lon":-81.563148,"lat":35.740688},"country":"US","_id":4.496484E6},
{"name":"Valley Hill","coord":{"lon":-82.483177,"lat":35.29845},"country":"US","_id":4.496508E6},
{"name":"Vanceboro","coord":{"lon":-77.154121,"lat":35.308498},"country":"US","_id":4.49657E6},
{"name":"Vander","coord":{"lon":-78.794739,"lat":35.032108},"country":"US","_id":4.496582E6},
{"name":"Ventnor City","coord":{"lon":-74.477371,"lat":39.340389},"country":"US","_id":4.504598E6},
{"name":"Victory Lakes","coord":{"lon":-74.966003,"lat":39.633171},"country":"US","_id":4.504608E6},
{"name":"Villas","coord":{"lon":-74.938507,"lat":39.028721},"country":"US","_id":4.504616E6},
{"name":"Verdigris","coord":{"lon":-95.691093,"lat":36.234821},"country":"US","_id":4.554401E6},
{"name":"Vian","coord":{"lon":-94.969673,"lat":35.498428},"country":"US","_id":4.554418E6},
{"name":"Vinita","coord":{"lon":-95.154129,"lat":36.638691},"country":"US","_id":4.554496E6},
{"name":"Valley View","coord":{"lon":-76.70108,"lat":39.9501},"country":"US","_id":4.561909E6},
{"name":"Valley Falls","coord":{"lon":-81.974831,"lat":35.015949},"country":"US","_id":4.599455E6},
{"name":"Varnville","coord":{"lon":-81.079269,"lat":32.850441},"country":"US","_id":4.599493E6},
{"name":"Vonore","coord":{"lon":-84.241859,"lat":35.59008},"country":"US","_id":4.664815E6},
{"name":"Valley Mills","coord":{"lon":-97.472237,"lat":31.65933},"country":"US","_id":4.738825E6},
{"name":"Van","coord":{"lon":-95.637177,"lat":32.52486},"country":"US","_id":4.738883E6},
{"name":"Van Alstyne","coord":{"lon":-96.577209,"lat":33.421501},"country":"US","_id":4.738884E6},
{"name":"Van Vleck","coord":{"lon":-95.889397,"lat":29.01775},"country":"US","_id":4.738908E6},
{"name":"Venus","coord":{"lon":-97.102509,"lat":32.433472},"country":"US","_id":4.739052E6},
{"name":"Vernon","coord":{"lon":-99.265083,"lat":34.15453},"country":"US","_id":4.739078E6},
{"name":"Vidor","coord":{"lon":-94.01545,"lat":30.131599},"country":"US","_id":4.739226E6},
{"name":"Von Ormy","coord":{"lon":-98.644463,"lat":29.289129},"country":"US","_id":4.739414E6},
{"name":"Verona","coord":{"lon":-79.008362,"lat":38.20208},"country":"US","_id":4.791102E6},
{"name":"Victoria","coord":{"lon":-78.227219,"lat":36.994869},"country":"US","_id":4.791136E6},
{"name":"Vinton","coord":{"lon":-79.89698,"lat":37.280972},"country":"US","_id":4.791237E6},
{"name":"Vienna","coord":{"lon":-81.548462,"lat":39.327019},"country":"US","_id":4.825976E6},
{"name":"Villa Ridge","coord":{"lon":-90.886803,"lat":38.472549},"country":"US","_id":4.828696E6},
{"name":"Van Meter","coord":{"lon":-93.954117,"lat":41.531929},"country":"US","_id":4.880034E6},
{"name":"Villisca","coord":{"lon":-94.976089,"lat":40.92971},"country":"US","_id":4.880228E6},
{"name":"Vinton","coord":{"lon":-92.023514,"lat":42.16861},"country":"US","_id":4.880268E6},
{"name":"Venetian Village","coord":{"lon":-88.052582,"lat":42.398628},"country":"US","_id":4.914704E6},
{"name":"Volo","coord":{"lon":-88.167862,"lat":42.32613},"country":"US","_id":4.914934E6},
{"name":"Veedersburg","coord":{"lon":-87.262512,"lat":40.113091},"country":"US","_id":4.92758E6},
{"name":"Vineyard Haven","coord":{"lon":-70.603638,"lat":41.454281},"country":"US","_id":4.953938E6},
{"name":"Van Buren","coord":{"lon":-67.935303,"lat":47.157269},"country":"US","_id":4.98171E6},
{"name":"Vassalboro","coord":{"lon":-69.677551,"lat":44.459229},"country":"US","_id":4.981745E6},
{"name":"Veazie","coord":{"lon":-68.705307,"lat":44.83868},"country":"US","_id":4.98175E6},
{"name":"Vinalhaven","coord":{"lon":-68.831703,"lat":44.048141},"country":"US","_id":4.981804E6},
{"name":"Vandercook Lake","coord":{"lon":-84.391068,"lat":42.193371},"country":"US","_id":5.013156E6},
{"name":"Vassar","coord":{"lon":-83.58329,"lat":43.371971},"country":"US","_id":5.013174E6},
{"name":"Vicksburg","coord":{"lon":-85.532784,"lat":42.120049},"country":"US","_id":5.013252E6},
{"name":"Vadnais Heights","coord":{"lon":-93.07383,"lat":45.057468},"country":"US","_id":5.051197E6},
{"name":"Victoria","coord":{"lon":-93.661629,"lat":44.85857},"country":"US","_id":5.051387E6},
{"name":"Vineland","coord":{"lon":-93.757469,"lat":46.16357},"country":"US","_id":5.051443E6},
{"name":"Virginia","coord":{"lon":-92.536568,"lat":47.523258},"country":"US","_id":5.051468E6},
{"name":"Valley City","coord":{"lon":-98.003151,"lat":46.923309},"country":"US","_id":5.062292E6},
{"name":"Valley","coord":{"lon":-96.346138,"lat":41.312778},"country":"US","_id":5.080995E6},
{"name":"Verona","coord":{"lon":-74.24015,"lat":40.829819},"country":"US","_id":5.105809E6},
{"name":"Victory Gardens","coord":{"lon":-74.542381,"lat":40.875931},"country":"US","_id":5.105831E6},
{"name":"Vista Center","coord":{"lon":-74.317917,"lat":40.159279},"country":"US","_id":5.105855E6},
{"name":"Vernon Valley","coord":{"lon":-74.487099,"lat":41.236759},"country":"US","_id":5.105867E6},
{"name":"Vails Gate","coord":{"lon":-74.05764,"lat":41.454262},"country":"US","_id":5.142073E6},
{"name":"Valatie","coord":{"lon":-73.673172,"lat":42.413422},"country":"US","_id":5.142075E6},
{"name":"Valhalla","coord":{"lon":-73.775131,"lat":41.074821},"country":"US","_id":5.14209E6},
{"name":"Valley Cottage","coord":{"lon":-73.955421,"lat":41.118149},"country":"US","_id":5.142101E6},
{"name":"Vernon","coord":{"lon":-75.539337,"lat":43.07951},"country":"US","_id":5.142269E6},
{"name":"Verplanck","coord":{"lon":-73.959862,"lat":41.252869},"country":"US","_id":5.142287E6},
{"name":"Victor","coord":{"lon":-77.408882,"lat":42.982559},"country":"US","_id":5.142315E6},
{"name":"Village Green","coord":{"lon":-76.312988,"lat":43.1334},"country":"US","_id":5.142343E6},
{"name":"Village of the Branch","coord":{"lon":-73.187332,"lat":40.856209},"country":"US","_id":5.142351E6},
{"name":"Viola","coord":{"lon":-74.082359,"lat":41.136478},"country":"US","_id":5.142362E6},
{"name":"Voorheesville","coord":{"lon":-73.928741,"lat":42.653969},"country":"US","_id":5.142415E6},
{"name":"Valley View","coord":{"lon":-81.604568,"lat":41.387829},"country":"US","_id":5.174958E6},
{"name":"Vermilion","coord":{"lon":-82.364609,"lat":41.421989},"country":"US","_id":5.175072E6},
{"name":"Van Wert","coord":{"lon":-84.584122,"lat":40.869492},"country":"US","_id":5.175079E6},
{"name":"Vermilion-on-the-Lake","coord":{"lon":-82.323769,"lat":41.428379},"country":"US","_id":5.17508E6},
{"name":"Versailles","coord":{"lon":-84.484398,"lat":40.222549},"country":"US","_id":5.175092E6},
{"name":"Valley Green","coord":{"lon":-76.792747,"lat":40.15731},"country":"US","_id":5.217005E6},
{"name":"Valley View","coord":{"lon":-76.539131,"lat":40.64592},"country":"US","_id":5.217039E6},
{"name":"Vandergrift","coord":{"lon":-79.564774,"lat":40.60284},"country":"US","_id":5.217103E6},
{"name":"Versailles","coord":{"lon":-79.831161,"lat":40.315632},"country":"US","_id":5.217183E6},
{"name":"Village Shires","coord":{"lon":-74.970451,"lat":40.203159},"country":"US","_id":5.217238E6},
{"name":"Vinco","coord":{"lon":-78.855583,"lat":40.405071},"country":"US","_id":5.21726E6},
{"name":"Valley Falls","coord":{"lon":-71.39061,"lat":41.906769},"country":"US","_id":5.225388E6},
{"name":"Vermillion","coord":{"lon":-96.929207,"lat":42.779442},"country":"US","_id":5.232592E6},
{"name":"Volga","coord":{"lon":-96.926453,"lat":44.323582},"country":"US","_id":5.232637E6},
{"name":"Vergennes","coord":{"lon":-73.254013,"lat":44.167278},"country":"US","_id":5.242224E6},
{"name":"Verona","coord":{"lon":-89.53318,"lat":42.990829},"country":"US","_id":5.277142E6},
{"name":"Viroqua","coord":{"lon":-90.888741,"lat":43.556919},"country":"US","_id":5.277276E6},
{"name":"Vine Hill","coord":{"lon":-122.096077,"lat":38.00853},"country":"US","_id":5.285214E6},
{"name":"Vail","coord":{"lon":-110.712029,"lat":32.047859},"country":"US","_id":5.319311E6},
{"name":"Val Verde","coord":{"lon":-118.657593,"lat":34.445},"country":"US","_id":5.405279E6},
{"name":"Valle Vista","coord":{"lon":-116.893356,"lat":33.747799},"country":"US","_id":5.405346E6},
{"name":"Valley Center","coord":{"lon":-117.034203,"lat":33.218369},"country":"US","_id":5.40543E6},
{"name":"Valley Springs","coord":{"lon":-120.829102,"lat":38.191589},"country":"US","_id":5.405554E6},
{"name":"Vandenberg Village","coord":{"lon":-120.467659,"lat":34.708321},"country":"US","_id":5.405737E6},
{"name":"Villa Park","coord":{"lon":-117.81311,"lat":33.814461},"country":"US","_id":5.406337E6},
{"name":"Vista Santa Rosa","coord":{"lon":-116.218063,"lat":33.6278},"country":"US","_id":5.406664E6},
{"name":"Vail","coord":{"lon":-106.374199,"lat":39.640259},"country":"US","_id":5.442727E6},
{"name":"Vado","coord":{"lon":-106.662498,"lat":32.111759},"country":"US","_id":5.496286E6},
{"name":"Valencia","coord":{"lon":-106.700302,"lat":34.7995},"country":"US","_id":5.496315E6},
{"name":"Verdi","coord":{"lon":-119.988808,"lat":39.518242},"country":"US","_id":5.514359E6},
{"name":"Virginia City","coord":{"lon":-119.64962,"lat":39.309631},"country":"US","_id":5.514428E6},
{"name":"Val Verde Park","coord":{"lon":-100.831757,"lat":29.37495},"country":"US","_id":5.532893E6},
{"name":"Van Horn","coord":{"lon":-104.830772,"lat":31.03986},"country":"US","_id":5.532924E6},
{"name":"Vega","coord":{"lon":-102.428261,"lat":35.242828},"country":"US","_id":5.532945E6},
{"name":"Vinton","coord":{"lon":-106.602493,"lat":31.95121},"country":"US","_id":5.532993E6},
{"name":"Victor","coord":{"lon":-111.111328,"lat":43.602699},"country":"US","_id":5.611251E6},
{"name":"Virginia City","coord":{"lon":-111.946091,"lat":45.293812},"country":"US","_id":5.684558E6},
{"name":"Velva","coord":{"lon":-100.929321,"lat":48.056122},"country":"US","_id":5.692751E6},
{"name":"Valentine","coord":{"lon":-100.550972,"lat":42.87278},"country":"US","_id":5.700344E6},
{"name":"Vale","coord":{"lon":-117.238228,"lat":43.982109},"country":"US","_id":5.758413E6},
{"name":"Veneta","coord":{"lon":-123.350929,"lat":44.048729},"country":"US","_id":5.758566E6},
{"name":"Vernonia","coord":{"lon":-123.192886,"lat":45.858719},"country":"US","_id":5.758599E6},
{"name":"Vernal","coord":{"lon":-109.528748,"lat":40.455521},"country":"US","_id":5.784154E6},
{"name":"Vashon","coord":{"lon":-122.459846,"lat":47.447319},"country":"US","_id":5.814647E6},
{"name":"Veradale","coord":{"lon":-117.207382,"lat":47.649948},"country":"US","_id":5.814686E6},
{"name":"Venersborg","coord":{"lon":-122.424538,"lat":45.773731},"country":"US","_id":5.814695E6},
{"name":"Volcano","coord":{"lon":-155.237778,"lat":19.43083},"country":"US","_id":5.853971E6},
{"name":"Valdez","coord":{"lon":-146.348328,"lat":61.130829},"country":"US","_id":5.877389E6},
{"name":"Village of Campton Hills","coord":{"lon":-88.397499,"lat":41.9366},"country":"US","_id":6.930979E6},
{"name":"Verde Village","coord":{"lon":-112.01152,"lat":34.710499},"country":"US","_id":7.176038E6},
{"name":"Village Green-Green Ridge","coord":{"lon":-75.425484,"lat":39.863628},"country":"US","_id":7.259124E6},
{"name":"Village of Oak Creek (Big Park)","coord":{"lon":-111.762268,"lat":34.780899},"country":"US","_id":7.260892E6},
{"name":"Vandenberg Air Force Base","coord":{"lon":-120.518173,"lat":34.748299},"country":"US","_id":7.262449E6},
{"name":"View Park-Windsor Hills","coord":{"lon":-118.348351,"lat":33.99551},"country":"US","_id":7.26246E6} ]
             